{
  "groupControls": [
    {
      "id": "g01",
      "group": "1",
      "name": "Maidstone Group Control",
      "place": "Maidstone",
      "lat": 51.2726,
      "lon": 0.529,
      "sector": "metropolitan"
    },
    {
      "id": "g02",
      "group": "2",
      "name": "Horsham Group Control",
      "place": "Horsham",
      "lat": 51.0629,
      "lon": -0.3259,
      "sector": "metropolitan"
    },
    {
      "id": "g03",
      "group": "3",
      "name": "Oxford Group Control",
      "place": "Oxford",
      "lat": 51.752,
      "lon": -1.2577,
      "sector": "metropolitan"
    },
    {
      "id": "g04",
      "group": "4",
      "name": "Colchester Group Control",
      "place": "Colchester",
      "lat": 51.8892,
      "lon": 0.9042,
      "sector": "metropolitan"
    },
    {
      "id": "g05",
      "group": "5",
      "name": "Watford Group Control",
      "place": "Watford",
      "lat": 51.6565,
      "lon": -0.3903,
      "sector": "metropolitan"
    },
    {
      "id": "g06",
      "group": "6",
      "name": "Norwich Group Control",
      "place": "Norwich",
      "lat": 52.565,
      "lon": 1.183,
      "sector": "midland"
    },
    {
      "id": "g07",
      "group": "7",
      "name": "Bedford Group Control",
      "place": "Bedford",
      "lat": 52.1364,
      "lon": -0.4675,
      "sector": "midland"
    },
    {
      "id": "g08",
      "group": "8",
      "name": "Coventry Group Control",
      "place": "Coventry",
      "lat": 52.4068,
      "lon": -1.5197,
      "sector": "midland"
    },
    {
      "id": "g09",
      "group": "9",
      "name": "Yeovil Group Control",
      "place": "Yeovil",
      "lat": 50.9421,
      "lon": -2.6333,
      "sector": "southern"
    },
    {
      "id": "g10",
      "group": "10",
      "name": "Exeter Group Control",
      "place": "Exeter",
      "lat": 50.7184,
      "lon": -3.5339,
      "sector": "southern"
    },
    {
      "id": "g11",
      "group": "11",
      "name": "Truro Group Control",
      "place": "Truro",
      "lat": 50.2632,
      "lon": -5.051,
      "sector": "southern"
    },
    {
      "id": "g12",
      "group": "12",
      "name": "Bristol Group Control",
      "place": "Bristol",
      "lat": 51.4545,
      "lon": -2.5879,
      "sector": "southern"
    },
    {
      "id": "g13",
      "group": "13",
      "name": "South Wales Group Control",
      "place": "Carmarthen",
      "lat": 51.8576,
      "lon": -4.3121,
      "sector": "southern"
    },
    {
      "id": "g14",
      "group": "14",
      "name": "Winchester Group Control",
      "place": "Winchester",
      "lat": 51.0629,
      "lon": -1.3167,
      "sector": "southern"
    },
    {
      "id": "g15",
      "group": "15",
      "name": "Lincoln Group Control",
      "place": "Lincoln",
      "lat": 53.2307,
      "lon": -0.5406,
      "sector": "eastern"
    },
    {
      "id": "g16",
      "group": "16",
      "name": "Shrewsbury Group Control",
      "place": "Shrewsbury",
      "lat": 52.7073,
      "lon": -2.7553,
      "sector": "midland"
    },
    {
      "id": "g17",
      "group": "17",
      "name": "North Wales Group Control",
      "place": "Wrexham / Borras",
      "lat": 53.046,
      "lon": -2.9916,
      "sector": "western"
    },
    {
      "id": "g18",
      "group": "18",
      "name": "Leeds Group Control",
      "place": "Leeds",
      "lat": 53.8008,
      "lon": -1.5491,
      "sector": "eastern"
    },
    {
      "id": "g20",
      "group": "20",
      "name": "York Group Control",
      "place": "Acomb, York",
      "lat": 53.959,
      "lon": -1.0815,
      "sector": "eastern"
    },
    {
      "id": "g21",
      "group": "21",
      "name": "Preston Group Control",
      "place": "Preston / Goosnargh",
      "lat": 53.7632,
      "lon": -2.7031,
      "sector": "western"
    },
    {
      "id": "g22",
      "group": "22",
      "name": "Carlisle Group Control",
      "place": "Carlisle",
      "lat": 54.8925,
      "lon": -2.9329,
      "sector": "western"
    },
    {
      "id": "g23",
      "group": "23",
      "name": "Durham Group Control",
      "place": "Durham",
      "lat": 54.7753,
      "lon": -1.5849,
      "sector": "eastern"
    },
    {
      "id": "g24",
      "group": "24",
      "name": "Edinburgh Group Control",
      "place": "Edinburgh / Lothian",
      "lat": 55.9,
      "lon": -3.2,
      "sector": "caledonian"
    },
    {
      "id": "g25",
      "group": "25",
      "name": "Ayr Group Control",
      "place": "Ayr / Prestwick",
      "lat": 55.4586,
      "lon": -4.6292,
      "sector": "caledonian"
    },
    {
      "id": "g27",
      "group": "27",
      "name": "Oban Group Control",
      "place": "North Connel",
      "lat": 56.451,
      "lon": -5.391,
      "sector": "caledonian"
    },
    {
      "id": "g28",
      "group": "28",
      "name": "Dundee Group Control",
      "place": "Dundee",
      "lat": 56.462,
      "lon": -2.9707,
      "sector": "caledonian"
    },
    {
      "id": "g29",
      "group": "29",
      "name": "Aberdeen Group Control",
      "place": "Northfield, Aberdeen",
      "lat": 57.1497,
      "lon": -2.0943,
      "sector": "caledonian"
    },
    {
      "id": "g30",
      "group": "30",
      "name": "Inverness Group Control",
      "place": "Inverness",
      "lat": 57.4778,
      "lon": -4.2247,
      "sector": "caledonian"
    },
    {
      "id": "g31",
      "group": "31",
      "name": "Belfast Group Control",
      "place": "Belfast / County Down",
      "lat": 54.45,
      "lon": -5.95,
      "sector": "ni"
    }
  ],
  "clusters": [
    {
      "id": "c01-dover",
      "group": "1",
      "masterId": "p-dover",
      "memberIds": [
        "p-dover",
        "p-folkestone",
        "p-deal"
      ]
    },
    {
      "id": "c01-ashford",
      "group": "1",
      "masterId": "p-ashford",
      "memberIds": [
        "p-ashford",
        "p-tenterden",
        "p-rye"
      ]
    },
    {
      "id": "c01-canterbury",
      "group": "1",
      "masterId": "p-canterbury",
      "memberIds": [
        "p-canterbury",
        "p-faversham",
        "p-margate"
      ]
    },
    {
      "id": "c01-tonbridge",
      "group": "1",
      "masterId": "p-sevenoaks",
      "memberIds": [
        "p-sevenoaks",
        "p-tonbridge",
        "p-cranbrook"
      ]
    },
    {
      "id": "c02-chichester",
      "group": "2",
      "masterId": "p-chichester",
      "memberIds": [
        "p-chichester",
        "p-arundel",
        "p-petworth"
      ]
    },
    {
      "id": "c02-crawley",
      "group": "2",
      "masterId": "p-crawley",
      "memberIds": [
        "p-crawley",
        "p-east-grinstead",
        "p-haywards-heath"
      ]
    },
    {
      "id": "c02-lewes",
      "group": "2",
      "masterId": "p-lewes",
      "memberIds": [
        "p-lewes",
        "p-billingshurst",
        "p-storrington"
      ]
    },
    {
      "id": "c03-faringdon",
      "group": "3",
      "masterId": "p-faringdon",
      "memberIds": [
        "p-faringdon",
        "p-wantage",
        "p-witney"
      ]
    },
    {
      "id": "c03-bicester",
      "group": "3",
      "masterId": "p-bicester",
      "memberIds": [
        "p-bicester",
        "p-chipping-norton",
        "p-aylesbury"
      ]
    },
    {
      "id": "c03-wallingford",
      "group": "3",
      "masterId": "p-wallingford",
      "memberIds": [
        "p-wallingford",
        "p-thame",
        "p-high-wycombe"
      ]
    },
    {
      "id": "c04-ipswich",
      "group": "4",
      "masterId": "p-ipswich",
      "memberIds": [
        "p-ipswich",
        "p-harwich",
        "p-aldeburgh"
      ]
    },
    {
      "id": "c04-halstead",
      "group": "4",
      "masterId": "p-halstead",
      "memberIds": [
        "p-halstead",
        "p-sudbury",
        "p-haverhill"
      ]
    },
    {
      "id": "c04-braintree",
      "group": "4",
      "masterId": "p-braintree",
      "memberIds": [
        "p-braintree",
        "p-saffron-walden",
        "p-witham"
      ]
    },
    {
      "id": "c05-st-albans",
      "group": "5",
      "masterId": "p-st-albans",
      "memberIds": [
        "p-st-albans",
        "p-hemel-hempstead",
        "p-hatfield"
      ]
    },
    {
      "id": "c05-barnet",
      "group": "5",
      "masterId": "p-barnet",
      "memberIds": [
        "p-barnet",
        "p-potters-bar",
        "p-bowes-park"
      ]
    },
    {
      "id": "c05-ware",
      "group": "5",
      "masterId": "p-ware",
      "memberIds": [
        "p-ware",
        "p-hertford",
        "p-northolt"
      ]
    },
    {
      "id": "c06-cromer",
      "group": "6",
      "masterId": "p-cromer",
      "memberIds": [
        "p-cromer",
        "p-north-walsham",
        "p-aylsham"
      ]
    },
    {
      "id": "c06-fakenham",
      "group": "6",
      "masterId": "p-fakenham",
      "memberIds": [
        "p-fakenham",
        "p-swaffham",
        "p-downham-market"
      ]
    },
    {
      "id": "c06-attleborough",
      "group": "6",
      "masterId": "p-attleborough",
      "memberIds": [
        "p-attleborough",
        "p-new-buckenham",
        "p-beccles"
      ]
    },
    {
      "id": "c07-northampton",
      "group": "7",
      "masterId": "p-northampton",
      "memberIds": [
        "p-northampton",
        "p-wellingborough",
        "p-olney"
      ]
    },
    {
      "id": "c07-huntingdon",
      "group": "7",
      "masterId": "p-huntingdon",
      "memberIds": [
        "p-huntingdon",
        "p-st-neots",
        "p-oundle"
      ]
    },
    {
      "id": "c07-luton",
      "group": "7",
      "masterId": "p-luton",
      "memberIds": [
        "p-luton",
        "p-ampthill",
        "p-potton"
      ]
    },
    {
      "id": "c08-nuneaton",
      "group": "8",
      "masterId": "p-nuneaton",
      "memberIds": [
        "p-nuneaton",
        "p-atherstone",
        "p-meriden"
      ]
    },
    {
      "id": "c08-rugby",
      "group": "8",
      "masterId": "p-rugby",
      "memberIds": [
        "p-rugby",
        "p-daventry",
        "p-southam"
      ]
    },
    {
      "id": "c08-stratford",
      "group": "8",
      "masterId": "p-stratford",
      "memberIds": [
        "p-stratford",
        "p-leamington",
        "p-kenilworth"
      ]
    },
    {
      "id": "c09-dorchester",
      "group": "9",
      "masterId": "p-dorchester",
      "memberIds": [
        "p-dorchester",
        "p-bridport",
        "p-weymouth"
      ]
    },
    {
      "id": "c09-wareham",
      "group": "9",
      "masterId": "p-wareham",
      "memberIds": [
        "p-wareham",
        "p-swanage",
        "p-wimborne"
      ]
    },
    {
      "id": "c09-sherborne",
      "group": "9",
      "masterId": "p-sherborne",
      "memberIds": [
        "p-sherborne",
        "p-wincanton",
        "p-shaftesbury"
      ]
    },
    {
      "id": "c10-barnstaple",
      "group": "10",
      "masterId": "p-barnstaple",
      "memberIds": [
        "p-barnstaple",
        "p-bideford",
        "p-south-molton"
      ]
    },
    {
      "id": "c10-tavistock",
      "group": "10",
      "masterId": "p-tavistock",
      "memberIds": [
        "p-tavistock",
        "p-okehampton",
        "p-crediton"
      ]
    },
    {
      "id": "c10-totnes",
      "group": "10",
      "masterId": "p-totnes",
      "memberIds": [
        "p-totnes",
        "p-newton-abbot",
        "p-honiton"
      ]
    },
    {
      "id": "c11-penzance",
      "group": "11",
      "masterId": "p-penzance",
      "memberIds": [
        "p-penzance",
        "p-st-just",
        "p-helston"
      ]
    },
    {
      "id": "c11-camborne",
      "group": "11",
      "masterId": "p-camborne",
      "memberIds": [
        "p-camborne",
        "p-falmouth",
        "p-nanpean"
      ]
    },
    {
      "id": "c11-bodmin",
      "group": "11",
      "masterId": "p-bodmin",
      "memberIds": [
        "p-bodmin",
        "p-newquay",
        "p-launceston"
      ]
    },
    {
      "id": "c12-swindon",
      "group": "12",
      "masterId": "p-swindon",
      "memberIds": [
        "p-swindon",
        "p-chippenham",
        "p-devizes"
      ]
    },
    {
      "id": "c12-stroud",
      "group": "12",
      "masterId": "p-stroud",
      "memberIds": [
        "p-stroud",
        "p-cirencester",
        "p-malmesbury"
      ]
    },
    {
      "id": "c12-bath",
      "group": "12",
      "masterId": "p-bath",
      "memberIds": [
        "p-bath",
        "p-frome",
        "p-warminster"
      ]
    },
    {
      "id": "c12-weston",
      "group": "12",
      "masterId": "p-weston",
      "memberIds": [
        "p-weston",
        "p-nailsea",
        "p-long-ashton"
      ]
    },
    {
      "id": "c13-haverfordwest",
      "group": "13",
      "masterId": "p-haverfordwest",
      "memberIds": [
        "p-haverfordwest",
        "p-fishguard",
        "p-tenby"
      ]
    },
    {
      "id": "c13-swansea",
      "group": "13",
      "masterId": "p-swansea",
      "memberIds": [
        "p-swansea",
        "p-llandeilo",
        "p-llandovery"
      ]
    },
    {
      "id": "c13-cardigan",
      "group": "13",
      "masterId": "p-cardigan",
      "memberIds": [
        "p-cardigan",
        "p-lampeter",
        "p-brecon"
      ]
    },
    {
      "id": "c14-andover",
      "group": "14",
      "masterId": "p-andover",
      "memberIds": [
        "p-andover",
        "p-stockbridge",
        "p-romsey"
      ]
    },
    {
      "id": "c14-basingstoke",
      "group": "14",
      "masterId": "p-basingstoke",
      "memberIds": [
        "p-basingstoke",
        "p-overton-hants",
        "p-alton"
      ]
    },
    {
      "id": "c14-petersfield",
      "group": "14",
      "masterId": "p-petersfield",
      "memberIds": [
        "p-petersfield",
        "p-bishops-waltham",
        "p-fordingbridge"
      ]
    },
    {
      "id": "c15-grimsby",
      "group": "15",
      "masterId": "p-grimsby",
      "memberIds": [
        "p-grimsby",
        "p-louth",
        "p-market-rasen"
      ]
    },
    {
      "id": "c15-skegness",
      "group": "15",
      "masterId": "p-skegness",
      "memberIds": [
        "p-skegness",
        "p-alford-lincs",
        "p-hackthorn"
      ]
    },
    {
      "id": "c15-grantham",
      "group": "15",
      "masterId": "p-grantham",
      "memberIds": [
        "p-grantham",
        "p-sleaford",
        "p-spalding"
      ]
    },
    {
      "id": "c16-stafford",
      "group": "16",
      "masterId": "p-stafford",
      "memberIds": [
        "p-stafford",
        "p-market-drayton",
        "p-upton-magna"
      ]
    },
    {
      "id": "c16-ludlow",
      "group": "16",
      "masterId": "p-ludlow",
      "memberIds": [
        "p-ludlow",
        "p-bridgnorth",
        "p-bishops-castle"
      ]
    },
    {
      "id": "c16-hereford",
      "group": "16",
      "masterId": "p-hereford",
      "memberIds": [
        "p-hereford",
        "p-ross-on-wye",
        "p-clun"
      ]
    },
    {
      "id": "c17-bangor",
      "group": "17",
      "masterId": "p-bangor",
      "memberIds": [
        "p-bangor",
        "p-caernarfon",
        "p-holyhead"
      ]
    },
    {
      "id": "c17-colwyn",
      "group": "17",
      "masterId": "p-colwyn-bay",
      "memberIds": [
        "p-colwyn-bay",
        "p-bala",
        "p-llanrhaiadr"
      ]
    },
    {
      "id": "c17-aberystwyth",
      "group": "17",
      "masterId": "p-aberystwyth",
      "memberIds": [
        "p-aberystwyth",
        "p-machynlleth",
        "p-dolgellau"
      ]
    },
    {
      "id": "c17-welshpool",
      "group": "17",
      "masterId": "p-welshpool",
      "memberIds": [
        "p-welshpool",
        "p-newtown-wales",
        "p-llanidloes"
      ]
    },
    {
      "id": "c18-otley",
      "group": "18",
      "masterId": "p-otley",
      "memberIds": [
        "p-otley",
        "p-ilkley",
        "p-tadcaster"
      ]
    },
    {
      "id": "c18-wetherby",
      "group": "18",
      "masterId": "p-wetherby",
      "memberIds": [
        "p-wetherby",
        "p-castleford",
        "p-pontefract"
      ]
    },
    {
      "id": "c18-wakefield",
      "group": "18",
      "masterId": "p-wakefield",
      "memberIds": [
        "p-wakefield",
        "p-dewsbury",
        "p-hemsworth"
      ]
    },
    {
      "id": "c20-tunstall",
      "group": "20",
      "masterId": "p-tunstall",
      "memberIds": [
        "p-tunstall",
        "p-keyingham",
        "p-skirlaugh"
      ]
    },
    {
      "id": "c20-bridlington",
      "group": "20",
      "masterId": "p-bridlington",
      "memberIds": [
        "p-bridlington",
        "p-skipsea",
        "p-langtoft"
      ]
    },
    {
      "id": "c20-pickering",
      "group": "20",
      "masterId": "p-pickering",
      "memberIds": [
        "p-pickering",
        "p-kirby-moorside",
        "p-wykeham"
      ]
    },
    {
      "id": "c20-pocklington",
      "group": "20",
      "masterId": "p-pocklington",
      "memberIds": [
        "p-pocklington",
        "p-fulford",
        "p-tockwith"
      ]
    },
    {
      "id": "c20-beverley",
      "group": "20",
      "masterId": "p-beverley",
      "memberIds": [
        "p-beverley",
        "p-holme-spalding",
        "p-gilberdyke"
      ]
    },
    {
      "id": "c20-strensall",
      "group": "20",
      "masterId": "p-strensall",
      "memberIds": [
        "p-strensall",
        "p-brandsby",
        "p-birdsall"
      ]
    },
    {
      "id": "c20-northallerton",
      "group": "20",
      "masterId": "p-northallerton",
      "memberIds": [
        "p-northallerton",
        "p-bedale"
      ]
    },
    {
      "id": "c20-middlesmoor",
      "group": "20",
      "masterId": "p-middlesmoor",
      "memberIds": [
        "p-middlesmoor",
        "p-north-stainley",
        "p-kirby-hill",
        "p-darley"
      ]
    },
    {
      "id": "c20-buckden",
      "group": "20",
      "masterId": "p-buckden",
      "memberIds": [
        "p-buckden",
        "p-horton",
        "p-settle",
        "p-grassington"
      ]
    },
    {
      "id": "c20-heckmondwike",
      "group": "20",
      "masterId": "p-heckmondwike",
      "memberIds": [
        "p-heckmondwike",
        "p-sowerby-bridge",
        "p-thornton"
      ]
    },
    {
      "id": "c20-guiseley",
      "group": "20",
      "masterId": "p-guiseley",
      "memberIds": [
        "p-guiseley",
        "p-keighley",
        "p-gargrave"
      ]
    },
    {
      "id": "c20-holmfirth",
      "group": "20",
      "masterId": "p-holmfirth",
      "memberIds": [
        "p-holmfirth",
        "p-darton"
      ]
    },
    {
      "id": "c20-barwick",
      "group": "20",
      "masterId": "p-barwick",
      "memberIds": [
        "p-barwick",
        "p-camblesforth"
      ]
    },
    {
      "id": "c21-blackburn",
      "group": "21",
      "masterId": "p-blackburn",
      "memberIds": [
        "p-blackburn",
        "p-darwen",
        "p-burnley"
      ]
    },
    {
      "id": "c21-lancaster",
      "group": "21",
      "masterId": "p-lancaster",
      "memberIds": [
        "p-lancaster",
        "p-garstang",
        "p-longridge"
      ]
    },
    {
      "id": "c21-burscough",
      "group": "21",
      "masterId": "p-burscough",
      "memberIds": [
        "p-burscough",
        "p-chorley",
        "p-accrington"
      ]
    },
    {
      "id": "c22-keswick",
      "group": "22",
      "masterId": "p-keswick",
      "memberIds": [
        "p-keswick",
        "p-cockermouth",
        "p-wigton"
      ]
    },
    {
      "id": "c22-whitehaven",
      "group": "22",
      "masterId": "p-whitehaven",
      "memberIds": [
        "p-whitehaven",
        "p-workington",
        "p-kendal"
      ]
    },
    {
      "id": "c22-penrith",
      "group": "22",
      "masterId": "p-penrith",
      "memberIds": [
        "p-penrith",
        "p-appleby",
        "p-alston"
      ]
    },
    {
      "id": "c23-stanhope",
      "group": "23",
      "masterId": "p-stanhope",
      "memberIds": [
        "p-stanhope",
        "p-bishop-auckland",
        "p-barnard-castle"
      ]
    },
    {
      "id": "c23-darlington",
      "group": "23",
      "masterId": "p-darlington",
      "memberIds": [
        "p-darlington",
        "p-stockton",
        "p-hartlepool"
      ]
    },
    {
      "id": "c23-hexham",
      "group": "23",
      "masterId": "p-hexham",
      "memberIds": [
        "p-hexham",
        "p-consett",
        "p-seaham"
      ]
    },
    {
      "id": "c24-dunbar",
      "group": "24",
      "masterId": "p-dunbar",
      "memberIds": [
        "p-dunbar",
        "p-haddington",
        "p-dalkeith"
      ]
    },
    {
      "id": "c24-galashiels",
      "group": "24",
      "masterId": "p-galashiels",
      "memberIds": [
        "p-galashiels",
        "p-melrose",
        "p-kelso"
      ]
    },
    {
      "id": "c24-hawick",
      "group": "24",
      "masterId": "p-hawick",
      "memberIds": [
        "p-hawick",
        "p-jedburgh",
        "p-peebles"
      ]
    },
    {
      "id": "c25-kilmarnock",
      "group": "25",
      "masterId": "p-kilmarnock",
      "memberIds": [
        "p-kilmarnock",
        "p-troon",
        "p-prestwick"
      ]
    },
    {
      "id": "c25-girvan",
      "group": "25",
      "masterId": "p-girvan",
      "memberIds": [
        "p-girvan",
        "p-newton-stewart",
        "p-stranraer"
      ]
    },
    {
      "id": "c25-dumfries",
      "group": "25",
      "masterId": "p-dumfries",
      "memberIds": [
        "p-dumfries",
        "p-castle-douglas",
        "p-kirkcudbright"
      ]
    },
    {
      "id": "c27-campbeltown",
      "group": "27",
      "masterId": "p-campbeltown",
      "memberIds": [
        "p-campbeltown",
        "p-tarbert",
        "p-lochgilphead"
      ]
    },
    {
      "id": "c27-oban-post",
      "group": "27",
      "masterId": "p-oban",
      "memberIds": [
        "p-oban",
        "p-inveraray",
        "p-dalmally"
      ]
    },
    {
      "id": "c27-fort-william",
      "group": "27",
      "masterId": "p-fort-william",
      "memberIds": [
        "p-fort-william",
        "p-tyndrum",
        "p-bridge-of-orchy"
      ]
    },
    {
      "id": "c28-arbroath",
      "group": "28",
      "masterId": "p-arbroath",
      "memberIds": [
        "p-arbroath",
        "p-montrose",
        "p-forfar"
      ]
    },
    {
      "id": "c28-st-andrews",
      "group": "28",
      "masterId": "p-st-andrews",
      "memberIds": [
        "p-st-andrews",
        "p-cupar",
        "p-kirkcaldy"
      ]
    },
    {
      "id": "c28-perth",
      "group": "28",
      "masterId": "p-perth",
      "memberIds": [
        "p-perth",
        "p-blairgowrie",
        "p-crieff"
      ]
    },
    {
      "id": "c29-peterhead",
      "group": "29",
      "masterId": "p-peterhead",
      "memberIds": [
        "p-peterhead",
        "p-fraserburgh",
        "p-banff"
      ]
    },
    {
      "id": "c29-elgin",
      "group": "29",
      "masterId": "p-elgin",
      "memberIds": [
        "p-elgin",
        "p-keith",
        "p-huntly"
      ]
    },
    {
      "id": "c29-stonehaven",
      "group": "29",
      "masterId": "p-stonehaven",
      "memberIds": [
        "p-stonehaven",
        "p-banchory",
        "p-kintore"
      ]
    },
    {
      "id": "c30-dingwall",
      "group": "30",
      "masterId": "p-dingwall",
      "memberIds": [
        "p-dingwall",
        "p-beauly",
        "p-cannich"
      ]
    },
    {
      "id": "c30-forres",
      "group": "30",
      "masterId": "p-forres",
      "memberIds": [
        "p-forres",
        "p-nairn",
        "p-grantown"
      ]
    },
    {
      "id": "c30-kingussie",
      "group": "30",
      "masterId": "p-kingussie",
      "memberIds": [
        "p-kingussie",
        "p-newtonmore",
        "p-aviemore"
      ]
    },
    {
      "id": "c31-ballymena",
      "group": "31",
      "masterId": "p-ballymena",
      "memberIds": [
        "p-ballymena",
        "p-antrim",
        "p-cookstown"
      ]
    },
    {
      "id": "c31-londonderry",
      "group": "31",
      "masterId": "p-londonderry",
      "memberIds": [
        "p-londonderry",
        "p-omagh",
        "p-enniskillen"
      ]
    },
    {
      "id": "c31-armagh",
      "group": "31",
      "masterId": "p-armagh",
      "memberIds": [
        "p-armagh",
        "p-newry",
        "p-downpatrick"
      ]
    },
    {
      "id": "c01-ramsgate",
      "group": "1",
      "masterId": "p-ramsgate",
      "memberIds": [
        "p-ramsgate",
        "p-broadstairs",
        "p-sandwich"
      ]
    },
    {
      "id": "c01-maidstone-e",
      "group": "1",
      "masterId": "p-maidstone",
      "memberIds": [
        "p-maidstone",
        "p-sittingbourne",
        "p-sheerness"
      ]
    },
    {
      "id": "c01-gravesend",
      "group": "1",
      "masterId": "p-gravesend",
      "memberIds": [
        "p-gravesend",
        "p-rochester",
        "p-snodland"
      ]
    },
    {
      "id": "c01-tunbridge-w",
      "group": "1",
      "masterId": "p-tunbridge-wells",
      "memberIds": [
        "p-tunbridge-wells",
        "p-edenbridge",
        "p-westerham"
      ]
    },
    {
      "id": "c01-herne-bay",
      "group": "1",
      "masterId": "p-herne-bay",
      "memberIds": [
        "p-herne-bay",
        "p-whitstable",
        "p-birchington"
      ]
    },
    {
      "id": "c02-worthing",
      "group": "2",
      "masterId": "p-worthing",
      "memberIds": [
        "p-worthing",
        "p-shoreham",
        "p-steyning"
      ]
    },
    {
      "id": "c02-brighton",
      "group": "2",
      "masterId": "p-brighton",
      "memberIds": [
        "p-brighton",
        "p-newhaven",
        "p-uckfield"
      ]
    },
    {
      "id": "c02-hastings",
      "group": "2",
      "masterId": "p-hastings",
      "memberIds": [
        "p-hastings",
        "p-bexhill",
        "p-battle"
      ]
    },
    {
      "id": "c02-eastbourne",
      "group": "2",
      "masterId": "p-eastbourne",
      "memberIds": [
        "p-eastbourne",
        "p-hailsham",
        "p-seaford"
      ]
    },
    {
      "id": "c03-banbury",
      "group": "3",
      "masterId": "p-banbury",
      "memberIds": [
        "p-banbury",
        "p-deddington",
        "p-brackley"
      ]
    },
    {
      "id": "c03-henley",
      "group": "3",
      "masterId": "p-henley",
      "memberIds": [
        "p-henley",
        "p-marlow",
        "p-maidenhead"
      ]
    },
    {
      "id": "c03-abingdon",
      "group": "3",
      "masterId": "p-abingdon",
      "memberIds": [
        "p-abingdon",
        "p-didcot",
        "p-grove"
      ]
    },
    {
      "id": "c03-buckingham",
      "group": "3",
      "masterId": "p-buckingham",
      "memberIds": [
        "p-buckingham",
        "p-winslow",
        "p-towcester"
      ]
    },
    {
      "id": "c04-chelmsford",
      "group": "4",
      "masterId": "p-chelmsford",
      "memberIds": [
        "p-chelmsford",
        "p-maldon",
        "p-burnham-crouch"
      ]
    },
    {
      "id": "c04-colchester-e",
      "group": "4",
      "masterId": "p-colchester",
      "memberIds": [
        "p-colchester",
        "p-clacton",
        "p-mersea"
      ]
    },
    {
      "id": "c04-lowestoft",
      "group": "4",
      "masterId": "p-lowestoft",
      "memberIds": [
        "p-lowestoft",
        "p-bungay",
        "p-halesworth"
      ]
    },
    {
      "id": "c04-woodbridge",
      "group": "4",
      "masterId": "p-woodbridge",
      "memberIds": [
        "p-woodbridge",
        "p-framlingham",
        "p-saxmundham"
      ]
    },
    {
      "id": "c05-enfield",
      "group": "5",
      "masterId": "p-enfield",
      "memberIds": [
        "p-enfield",
        "p-waltham-abbey",
        "p-cheshunt"
      ]
    },
    {
      "id": "c05-stortford",
      "group": "5",
      "masterId": "p-bishops-stortford",
      "memberIds": [
        "p-bishops-stortford",
        "p-sawbridgeworth",
        "p-harlow"
      ]
    },
    {
      "id": "c05-stevenage",
      "group": "5",
      "masterId": "p-stevenage",
      "memberIds": [
        "p-stevenage",
        "p-hitchin",
        "p-letchworth"
      ]
    },
    {
      "id": "c05-berkhamsted",
      "group": "5",
      "masterId": "p-berkhamsted",
      "memberIds": [
        "p-berkhamsted",
        "p-tring",
        "p-chesham"
      ]
    },
    {
      "id": "c06-kings-lynn",
      "group": "6",
      "masterId": "p-kings-lynn",
      "memberIds": [
        "p-kings-lynn",
        "p-heacham",
        "p-hunstanton"
      ]
    },
    {
      "id": "c06-thetford",
      "group": "6",
      "masterId": "p-thetford",
      "memberIds": [
        "p-thetford",
        "p-watton",
        "p-diss"
      ]
    },
    {
      "id": "c06-yarmouth",
      "group": "6",
      "masterId": "p-great-yarmouth",
      "memberIds": [
        "p-great-yarmouth",
        "p-loddon",
        "p-wymondham"
      ]
    },
    {
      "id": "c06-wells",
      "group": "6",
      "masterId": "p-wells-next-sea",
      "memberIds": [
        "p-wells-next-sea",
        "p-burnham-market",
        "p-brancaster"
      ]
    },
    {
      "id": "c07-cambridge",
      "group": "7",
      "masterId": "p-cambridge",
      "memberIds": [
        "p-cambridge",
        "p-royston",
        "p-sawston"
      ]
    },
    {
      "id": "c07-kettering",
      "group": "7",
      "masterId": "p-kettering",
      "memberIds": [
        "p-kettering",
        "p-corby",
        "p-thrapston"
      ]
    },
    {
      "id": "c07-bedford",
      "group": "7",
      "masterId": "p-bedford",
      "memberIds": [
        "p-bedford",
        "p-sandy",
        "p-biggleswade"
      ]
    },
    {
      "id": "c07-ely",
      "group": "7",
      "masterId": "p-ely",
      "memberIds": [
        "p-ely",
        "p-march",
        "p-chatteris"
      ]
    },
    {
      "id": "c08-warwick",
      "group": "8",
      "masterId": "p-warwick",
      "memberIds": [
        "p-warwick",
        "p-henley-in-arden",
        "p-solihull"
      ]
    },
    {
      "id": "c08-tamworth",
      "group": "8",
      "masterId": "p-tamworth",
      "memberIds": [
        "p-tamworth",
        "p-lichfield",
        "p-burton"
      ]
    },
    {
      "id": "c08-redditch",
      "group": "8",
      "masterId": "p-redditch",
      "memberIds": [
        "p-redditch",
        "p-alcester",
        "p-evesham"
      ]
    },
    {
      "id": "c09-taunton",
      "group": "9",
      "masterId": "p-taunton",
      "memberIds": [
        "p-taunton",
        "p-chard",
        "p-ilminster"
      ]
    },
    {
      "id": "c09-glastonbury",
      "group": "9",
      "masterId": "p-glastonbury",
      "memberIds": [
        "p-glastonbury",
        "p-bridgwater",
        "p-burnham-sea"
      ]
    },
    {
      "id": "c09-yeovil",
      "group": "9",
      "masterId": "p-yeovil",
      "memberIds": [
        "p-yeovil",
        "p-crewkerne",
        "p-somerton"
      ]
    },
    {
      "id": "c09-blandford",
      "group": "9",
      "masterId": "p-blandford",
      "memberIds": [
        "p-blandford",
        "p-sturminster-newton",
        "p-gillingham-dorset"
      ]
    },
    {
      "id": "c10-tiverton",
      "group": "10",
      "masterId": "p-tiverton",
      "memberIds": [
        "p-tiverton",
        "p-cullompton",
        "p-bampton"
      ]
    },
    {
      "id": "c10-exeter",
      "group": "10",
      "masterId": "p-exeter",
      "memberIds": [
        "p-exeter",
        "p-exmouth",
        "p-sidmouth"
      ]
    },
    {
      "id": "c10-brixham",
      "group": "10",
      "masterId": "p-brixham",
      "memberIds": [
        "p-brixham",
        "p-paignton",
        "p-torquay"
      ]
    },
    {
      "id": "c11-truro",
      "group": "11",
      "masterId": "p-truro",
      "memberIds": [
        "p-truro",
        "p-redruth",
        "p-perranporth"
      ]
    },
    {
      "id": "c11-lostwithiel",
      "group": "11",
      "masterId": "p-lostwithiel",
      "memberIds": [
        "p-lostwithiel",
        "p-fowey",
        "p-liskeard"
      ]
    },
    {
      "id": "c11-bude",
      "group": "11",
      "masterId": "p-bude",
      "memberIds": [
        "p-bude",
        "p-camelford",
        "p-wadebridge"
      ]
    },
    {
      "id": "c12-cheltenham",
      "group": "12",
      "masterId": "p-cheltenham",
      "memberIds": [
        "p-cheltenham",
        "p-gloucester",
        "p-tewkesbury"
      ]
    },
    {
      "id": "c12-tetbury",
      "group": "12",
      "masterId": "p-tetbury",
      "memberIds": [
        "p-tetbury",
        "p-chipping-sodbury",
        "p-thornbury"
      ]
    },
    {
      "id": "c12-shepton-m",
      "group": "12",
      "masterId": "p-shepton-mallet",
      "memberIds": [
        "p-shepton-mallet",
        "p-radstock",
        "p-midsomer-norton"
      ]
    },
    {
      "id": "c12-trowbridge",
      "group": "12",
      "masterId": "p-trowbridge",
      "memberIds": [
        "p-trowbridge",
        "p-westbury",
        "p-melksham"
      ]
    },
    {
      "id": "c13-merthyr",
      "group": "13",
      "masterId": "p-merthyr-tydfil",
      "memberIds": [
        "p-merthyr-tydfil",
        "p-aberdare",
        "p-rhymney"
      ]
    },
    {
      "id": "c13-neath",
      "group": "13",
      "masterId": "p-neath",
      "memberIds": [
        "p-neath",
        "p-port-talbot",
        "p-maesteg"
      ]
    },
    {
      "id": "c13-abergavenny",
      "group": "13",
      "masterId": "p-abergavenny",
      "memberIds": [
        "p-abergavenny",
        "p-monmouth",
        "p-raglan"
      ]
    },
    {
      "id": "c13-rhayader",
      "group": "13",
      "masterId": "p-rhayader",
      "memberIds": [
        "p-rhayader",
        "p-builth-wells",
        "p-llandrindod"
      ]
    },
    {
      "id": "c14-southampton",
      "group": "14",
      "masterId": "p-southampton",
      "memberIds": [
        "p-southampton",
        "p-eastleigh",
        "p-chandlers-ford"
      ]
    },
    {
      "id": "c14-fareham",
      "group": "14",
      "masterId": "p-fareham",
      "memberIds": [
        "p-fareham",
        "p-gosport",
        "p-havant"
      ]
    },
    {
      "id": "c14-ringwood",
      "group": "14",
      "masterId": "p-ringwood",
      "memberIds": [
        "p-ringwood",
        "p-lymington",
        "p-hythe"
      ]
    },
    {
      "id": "c14-portsmouth",
      "group": "14",
      "masterId": "p-portsmouth",
      "memberIds": [
        "p-portsmouth",
        "p-waterlooville",
        "p-hamble"
      ]
    },
    {
      "id": "c15-horncastle",
      "group": "15",
      "masterId": "p-horncastle",
      "memberIds": [
        "p-horncastle",
        "p-woodhall-spa",
        "p-tattershall"
      ]
    },
    {
      "id": "c15-boston",
      "group": "15",
      "masterId": "p-boston-lincs",
      "memberIds": [
        "p-boston-lincs",
        "p-holbeach",
        "p-donington"
      ]
    },
    {
      "id": "c15-gainsborough",
      "group": "15",
      "masterId": "p-gainsborough",
      "memberIds": [
        "p-gainsborough",
        "p-retford",
        "p-bawtry"
      ]
    },
    {
      "id": "c16-wolverhampton",
      "group": "16",
      "masterId": "p-wolverhampton",
      "memberIds": [
        "p-wolverhampton",
        "p-sedgley",
        "p-stourbridge"
      ]
    },
    {
      "id": "c16-oswestry",
      "group": "16",
      "masterId": "p-oswestry",
      "memberIds": [
        "p-oswestry",
        "p-ellesmere",
        "p-whitchurch"
      ]
    },
    {
      "id": "c16-telford",
      "group": "16",
      "masterId": "p-telford",
      "memberIds": [
        "p-telford",
        "p-newport-sa",
        "p-much-wenlock"
      ]
    },
    {
      "id": "c16-kidderminster",
      "group": "16",
      "masterId": "p-kidderminster",
      "memberIds": [
        "p-kidderminster",
        "p-bewdley",
        "p-stourport"
      ]
    },
    {
      "id": "c17-rhyl",
      "group": "17",
      "masterId": "p-rhyl",
      "memberIds": [
        "p-rhyl",
        "p-prestatyn",
        "p-st-asaph"
      ]
    },
    {
      "id": "c17-llangefni",
      "group": "17",
      "masterId": "p-llangefni",
      "memberIds": [
        "p-llangefni",
        "p-amlwch",
        "p-beaumaris"
      ]
    },
    {
      "id": "c17-pwllheli",
      "group": "17",
      "masterId": "p-pwllheli",
      "memberIds": [
        "p-pwllheli",
        "p-criccieth",
        "p-portmadoc"
      ]
    },
    {
      "id": "c17-barmouth",
      "group": "17",
      "masterId": "p-barmouth",
      "memberIds": [
        "p-barmouth",
        "p-tywyn",
        "p-aberdyfi"
      ]
    },
    {
      "id": "c18-bradford",
      "group": "18",
      "masterId": "p-bradford",
      "memberIds": [
        "p-bradford",
        "p-bingley",
        "p-shipley"
      ]
    },
    {
      "id": "c18-huddersfield",
      "group": "18",
      "masterId": "p-huddersfield",
      "memberIds": [
        "p-huddersfield",
        "p-mirfield",
        "p-brighouse"
      ]
    },
    {
      "id": "c18-barnsley",
      "group": "18",
      "masterId": "p-barnsley",
      "memberIds": [
        "p-barnsley",
        "p-royston-yorks",
        "p-hoyland"
      ]
    },
    {
      "id": "c18-sheffield",
      "group": "18",
      "masterId": "p-sheffield",
      "memberIds": [
        "p-sheffield",
        "p-chapeltown",
        "p-rotherham"
      ]
    },
    {
      "id": "c18-harrogate",
      "group": "18",
      "masterId": "p-harrogate",
      "memberIds": [
        "p-harrogate",
        "p-knaresborough",
        "p-ripon"
      ]
    },
    {
      "id": "c21-southport",
      "group": "21",
      "masterId": "p-southport",
      "memberIds": [
        "p-southport",
        "p-ormskirk",
        "p-skelmersdale"
      ]
    },
    {
      "id": "c21-blackpool",
      "group": "21",
      "masterId": "p-blackpool",
      "memberIds": [
        "p-blackpool",
        "p-lytham-st-annes",
        "p-fleetwood"
      ]
    },
    {
      "id": "c21-colne",
      "group": "21",
      "masterId": "p-colne",
      "memberIds": [
        "p-colne",
        "p-nelson",
        "p-padiham"
      ]
    },
    {
      "id": "c21-clitheroe",
      "group": "21",
      "masterId": "p-clitheroe",
      "memberIds": [
        "p-clitheroe",
        "p-ribchester",
        "p-slaidburn"
      ]
    },
    {
      "id": "c22-carlisle-c",
      "group": "22",
      "masterId": "p-carlisle",
      "memberIds": [
        "p-carlisle",
        "p-brampton",
        "p-longtown"
      ]
    },
    {
      "id": "c22-ulverston",
      "group": "22",
      "masterId": "p-ulverston",
      "memberIds": [
        "p-ulverston",
        "p-barrow",
        "p-dalton"
      ]
    },
    {
      "id": "c22-ambleside",
      "group": "22",
      "masterId": "p-ambleside",
      "memberIds": [
        "p-ambleside",
        "p-windermere",
        "p-coniston"
      ]
    },
    {
      "id": "c23-north-tyne",
      "group": "23",
      "masterId": "p-morpeth",
      "memberIds": [
        "p-morpeth",
        "p-blyth",
        "p-ashington"
      ]
    },
    {
      "id": "c23-gateshead",
      "group": "23",
      "masterId": "p-gateshead",
      "memberIds": [
        "p-gateshead",
        "p-sunderland",
        "p-washington"
      ]
    },
    {
      "id": "c23-middlesbrough",
      "group": "23",
      "masterId": "p-middlesbrough",
      "memberIds": [
        "p-middlesbrough",
        "p-redcar",
        "p-guisborough"
      ]
    },
    {
      "id": "c24-edinburgh",
      "group": "24",
      "masterId": "p-edinburgh-city",
      "memberIds": [
        "p-edinburgh-city",
        "p-penicuik",
        "p-bathgate"
      ]
    },
    {
      "id": "c24-linlithgow",
      "group": "24",
      "masterId": "p-linlithgow",
      "memberIds": [
        "p-linlithgow",
        "p-bo-ness",
        "p-falkirk"
      ]
    },
    {
      "id": "c24-berwick",
      "group": "24",
      "masterId": "p-berwick",
      "memberIds": [
        "p-berwick",
        "p-coldstream",
        "p-duns"
      ]
    },
    {
      "id": "c25-largs",
      "group": "25",
      "masterId": "p-largs",
      "memberIds": [
        "p-largs",
        "p-ardrossan",
        "p-irvine"
      ]
    },
    {
      "id": "c25-beith",
      "group": "25",
      "masterId": "p-beith",
      "memberIds": [
        "p-beith",
        "p-dalry",
        "p-stewarton"
      ]
    },
    {
      "id": "c25-sanquhar",
      "group": "25",
      "masterId": "p-sanquhar",
      "memberIds": [
        "p-sanquhar",
        "p-thornhill",
        "p-moffat"
      ]
    },
    {
      "id": "c27-islay",
      "group": "27",
      "masterId": "p-port-ellen",
      "memberIds": [
        "p-port-ellen",
        "p-bowmore",
        "p-bridgend-islay"
      ]
    },
    {
      "id": "c27-mull",
      "group": "27",
      "masterId": "p-tobermory",
      "memberIds": [
        "p-tobermory",
        "p-craignure",
        "p-fionnphort"
      ]
    },
    {
      "id": "c27-arran",
      "group": "27",
      "masterId": "p-brodick",
      "memberIds": [
        "p-brodick",
        "p-lamlash",
        "p-lochranza"
      ]
    },
    {
      "id": "c28-dundee-city",
      "group": "28",
      "masterId": "p-dundee",
      "memberIds": [
        "p-dundee",
        "p-balgay",
        "p-broughty-ferry"
      ]
    },
    {
      "id": "c28-kinross",
      "group": "28",
      "masterId": "p-kinross",
      "memberIds": [
        "p-kinross",
        "p-cowdenbeath",
        "p-auchtermuchty"
      ]
    },
    {
      "id": "c28-pitlochry",
      "group": "28",
      "masterId": "p-pitlochry",
      "memberIds": [
        "p-pitlochry",
        "p-aberfeldy",
        "p-dunkeld"
      ]
    },
    {
      "id": "c29-aberdeen",
      "group": "29",
      "masterId": "p-aberdeen-city",
      "memberIds": [
        "p-aberdeen-city",
        "p-portlethen",
        "p-westhill"
      ]
    },
    {
      "id": "c29-turriff",
      "group": "29",
      "masterId": "p-turriff",
      "memberIds": [
        "p-turriff",
        "p-oldmeldrum",
        "p-macduff"
      ]
    },
    {
      "id": "c30-wick",
      "group": "30",
      "masterId": "p-wick",
      "memberIds": [
        "p-wick",
        "p-thurso",
        "p-brora"
      ]
    },
    {
      "id": "c30-kyle",
      "group": "30",
      "masterId": "p-kyle",
      "memberIds": [
        "p-kyle",
        "p-plockton",
        "p-glenelg"
      ]
    },
    {
      "id": "c30-ullapool",
      "group": "30",
      "masterId": "p-ullapool",
      "memberIds": [
        "p-ullapool",
        "p-garve",
        "p-lairg"
      ]
    },
    {
      "id": "c31-belfast",
      "group": "31",
      "masterId": "p-belfast",
      "memberIds": [
        "p-belfast",
        "p-hillsborough",
        "p-lisburn"
      ]
    },
    {
      "id": "c31-bangor-ni",
      "group": "31",
      "masterId": "p-bangor-ni",
      "memberIds": [
        "p-bangor-ni",
        "p-newtownards",
        "p-comber"
      ]
    },
    {
      "id": "c31-coleraine",
      "group": "31",
      "masterId": "p-coleraine",
      "memberIds": [
        "p-coleraine",
        "p-portrush",
        "p-ballymoney"
      ]
    }
  ],
  "monitoringPosts": [
    {
      "id": "p-northolt",
      "name": "Northolt ROC Post",
      "group": "5",
      "number": "62",
      "lat": 51.55374316,
      "lon": -0.4237478,
      "status": "Opened 1967, closed 1991"
    },
    {
      "id": "p-bowes-park",
      "name": "Bowes Park ROC Post",
      "group": "5",
      "number": "61",
      "lat": 51.59698805,
      "lon": -0.12366686,
      "status": "Opened 1964, closed 1991"
    },
    {
      "id": "p-dulwich",
      "name": "Dulwich ROC Post",
      "group": "5",
      "number": "15",
      "lat": 51.437,
      "lon": -0.071,
      "status": "Opened 1965, closed 1991"
    },
    {
      "id": "p-dover",
      "name": "Dover ROC Post",
      "group": "1",
      "number": "7",
      "lat": 51.14012922,
      "lon": 1.3406425,
      "status": "Publicly listed ROC post"
    },
    {
      "id": "p-sevenoaks",
      "name": "Sevenoaks ROC Post",
      "group": "1",
      "number": "22",
      "lat": 51.27822406,
      "lon": 0.18105945,
      "status": "Publicly listed ROC post"
    },
    {
      "id": "p-tonbridge",
      "name": "Tonbridge ROC Post",
      "group": "1",
      "number": "31",
      "lat": 51.19739634,
      "lon": 0.28359183,
      "status": "Publicly listed ROC post"
    },
    {
      "id": "p-crawley",
      "name": "Crawley ROC Post",
      "group": "2",
      "number": "14",
      "lat": 51.14505045,
      "lon": -0.20038378,
      "status": "Publicly listed ROC post"
    },
    {
      "id": "p-billingshurst",
      "name": "Billingshurst ROC Post",
      "group": "2",
      "number": "26",
      "lat": 51.02139719,
      "lon": -0.43801883,
      "status": "Publicly listed ROC post"
    },
    {
      "id": "p-lewes",
      "name": "Lewes ROC Post",
      "group": "2",
      "number": "37",
      "lat": 50.88404531,
      "lon": -0.02108972,
      "status": "Publicly listed ROC post"
    },
    {
      "id": "p-faringdon",
      "name": "Faringdon ROC Post",
      "group": "3",
      "number": "9",
      "lat": 51.65405357,
      "lon": -1.58697372,
      "status": "Publicly listed ROC post"
    },
    {
      "id": "p-wallingford",
      "name": "Wallingford ROC Post",
      "group": "3",
      "number": "18",
      "lat": 51.60164781,
      "lon": -1.14115482,
      "status": "Publicly listed ROC post"
    },
    {
      "id": "p-chipping-norton",
      "name": "Chipping Norton ROC Post",
      "group": "3",
      "number": "28",
      "lat": 51.94411744,
      "lon": -1.54169072,
      "status": "Publicly listed ROC post"
    },
    {
      "id": "p-ipswich",
      "name": "Ipswich ROC Post",
      "group": "4",
      "number": "33",
      "lat": 52.06802603,
      "lon": 1.15499107,
      "status": "Publicly listed ROC post"
    },
    {
      "id": "p-witham",
      "name": "Witham ROC Post",
      "group": "4",
      "number": "21",
      "lat": 51.81246986,
      "lon": 0.63026778,
      "status": "Publicly listed ROC post"
    },
    {
      "id": "p-halstead",
      "name": "Halstead ROC Post",
      "group": "4",
      "number": "12",
      "lat": 51.94792771,
      "lon": 0.62931189,
      "status": "Publicly listed ROC post"
    },
    {
      "id": "p-new-buckenham",
      "name": "New Buckenham ROC Post",
      "group": "6",
      "number": "39",
      "lat": 52.47422589,
      "lon": 1.08516402,
      "status": "Publicly listed ROC post"
    },
    {
      "id": "p-dereham",
      "name": "Dereham ROC Post",
      "group": "6",
      "number": "24",
      "lat": 52.68501418,
      "lon": 0.93708008,
      "status": "Publicly listed ROC post"
    },
    {
      "id": "p-beccles",
      "name": "Beccles ROC Post",
      "group": "6",
      "number": "47",
      "lat": 52.45763237,
      "lon": 1.569127,
      "status": "Publicly listed ROC post"
    },
    {
      "id": "p-olney",
      "name": "Olney ROC Post",
      "group": "7",
      "number": "35",
      "lat": 52.10246138,
      "lon": -0.6998458,
      "status": "Opened 1964, closed 1991"
    },
    {
      "id": "p-luton",
      "name": "Luton ROC Post",
      "group": "7",
      "number": "12",
      "lat": 51.87983106,
      "lon": -0.36093802,
      "status": "Publicly listed ROC post"
    },
    {
      "id": "p-huntingdon",
      "name": "Huntingdon ROC Post",
      "group": "7",
      "number": "48",
      "lat": 52.33001503,
      "lon": -0.18159225,
      "status": "Publicly listed ROC post"
    },
    {
      "id": "p-meriden",
      "name": "Meriden ROC Post",
      "group": "8",
      "number": "31",
      "lat": 52.43939867,
      "lon": -1.61645096,
      "status": "Opened 1965, closed 1991"
    },
    {
      "id": "p-leamington",
      "name": "Leamington Spa ROC Post",
      "group": "8",
      "number": "18",
      "lat": 52.19924132,
      "lon": -1.53380535,
      "status": "Publicly listed ROC post"
    },
    {
      "id": "p-rugby",
      "name": "Rugby ROC Post",
      "group": "8",
      "number": "24",
      "lat": 52.36699526,
      "lon": -1.26680053,
      "status": "Publicly listed ROC post"
    },
    {
      "id": "p-stratford",
      "name": "Stratford-upon-Avon ROC Post",
      "group": "8",
      "number": "36",
      "lat": 52.16678688,
      "lon": -1.83883675,
      "status": "Publicly listed ROC post"
    },
    {
      "id": "p-sherborne",
      "name": "Sherborne ROC Post",
      "group": "9",
      "number": "19",
      "lat": 50.99328027,
      "lon": -2.42826615,
      "status": "Publicly listed ROC post"
    },
    {
      "id": "p-bridport",
      "name": "Bridport ROC Post",
      "group": "9",
      "number": "25",
      "lat": 50.72822598,
      "lon": -2.75582359,
      "status": "Publicly listed ROC post"
    },
    {
      "id": "p-blandford",
      "name": "Blandford Forum ROC Post",
      "group": "9",
      "number": "31",
      "lat": 50.85079021,
      "lon": -2.16543971,
      "status": "Publicly listed ROC post"
    },
    {
      "id": "p-okehampton",
      "name": "Okehampton ROC Post",
      "group": "10",
      "number": "18",
      "lat": 50.72702757,
      "lon": -4.07094432,
      "status": "Publicly listed ROC post"
    },
    {
      "id": "p-totnes",
      "name": "Totnes ROC Post",
      "group": "10",
      "number": "27",
      "lat": 50.43111051,
      "lon": -3.67528757,
      "status": "Publicly listed ROC post"
    },
    {
      "id": "p-honiton",
      "name": "Honiton ROC Post",
      "group": "10",
      "number": "34",
      "lat": 50.79648608,
      "lon": -3.2045941,
      "status": "Publicly listed ROC post"
    },
    {
      "id": "p-nanpean",
      "name": "Nanpean ROC Post",
      "group": "11",
      "number": "44",
      "lat": 50.22433827,
      "lon": -4.84097294,
      "status": "Publicly listed ROC post"
    },
    {
      "id": "p-bodmin",
      "name": "Bodmin ROC Post",
      "group": "11",
      "number": "29",
      "lat": 50.46127507,
      "lon": -4.72058189,
      "status": "Publicly listed ROC post"
    },
    {
      "id": "p-liskeard",
      "name": "Liskeard ROC Post",
      "group": "11",
      "number": "17",
      "lat": 50.45588833,
      "lon": -4.45750585,
      "status": "Publicly listed ROC post"
    },
    {
      "id": "p-long-ashton",
      "name": "Long Ashton ROC Post",
      "group": "12",
      "number": "23",
      "lat": 51.42145674,
      "lon": -2.66423346,
      "status": "Publicly listed ROC post"
    },
    {
      "id": "p-bath",
      "name": "Bath ROC Post",
      "group": "12",
      "number": "11",
      "lat": 51.38296186,
      "lon": -2.3856257,
      "status": "Publicly listed ROC post"
    },
    {
      "id": "p-weston",
      "name": "Weston-super-Mare ROC Post",
      "group": "12",
      "number": "34",
      "lat": 51.31951862,
      "lon": -2.95851024,
      "status": "Publicly listed ROC post"
    },
    {
      "id": "p-carmarthen",
      "name": "Carmarthen ROC Post",
      "group": "13",
      "number": "38",
      "lat": 51.86712868,
      "lon": -4.30957094,
      "status": "Publicly listed ROC post"
    },
    {
      "id": "p-swansea",
      "name": "Swansea ROC Post",
      "group": "13",
      "number": "15",
      "lat": 51.62959062,
      "lon": -3.99808745,
      "status": "Publicly listed ROC post"
    },
    {
      "id": "p-haverfordwest",
      "name": "Haverfordwest ROC Post",
      "group": "13",
      "number": "51",
      "lat": 51.80312404,
      "lon": -4.88247797,
      "status": "Publicly listed ROC post"
    },
    {
      "id": "p-overton-hants",
      "name": "Overton ROC Post",
      "group": "14",
      "number": "20",
      "lat": 51.24473604,
      "lon": -1.25540964,
      "status": "Publicly listed ROC post"
    },
    {
      "id": "p-basingstoke",
      "name": "Basingstoke ROC Post",
      "group": "14",
      "number": "8",
      "lat": 51.19613035,
      "lon": -1.03894411,
      "status": "Publicly listed ROC post"
    },
    {
      "id": "p-petersfield",
      "name": "Petersfield ROC Post",
      "group": "14",
      "number": "32",
      "lat": 51.01222019,
      "lon": -0.94324966,
      "status": "Publicly listed ROC post"
    },
    {
      "id": "p-stockbridge",
      "name": "Stockbridge ROC Post",
      "group": "14",
      "number": "27",
      "lat": 51.11554794,
      "lon": -1.45664063,
      "status": "Publicly listed ROC post"
    },
    {
      "id": "p-andover",
      "name": "Andover ROC Post",
      "group": "14",
      "number": "12",
      "lat": 51.27105124,
      "lon": -1.46341027,
      "status": "Publicly listed ROC post"
    },
    {
      "id": "p-romsey",
      "name": "Romsey ROC Post",
      "group": "14",
      "number": "38",
      "lat": 50.9550962,
      "lon": -1.53297321,
      "status": "Publicly listed ROC post"
    },
    {
      "id": "p-hackthorn",
      "name": "Hackthorn ROC Post",
      "group": "15",
      "number": "41",
      "lat": 53.29804747,
      "lon": -0.50582259,
      "status": "Publicly listed ROC post"
    },
    {
      "id": "p-louth",
      "name": "Louth ROC Post",
      "group": "15",
      "number": "22",
      "lat": 53.34265972,
      "lon": 0.00722175,
      "status": "Publicly listed ROC post"
    },
    {
      "id": "p-spalding",
      "name": "Spalding ROC Post",
      "group": "15",
      "number": "14",
      "lat": 52.77410817,
      "lon": -0.11984899,
      "status": "Publicly listed ROC post"
    },
    {
      "id": "p-upton-magna",
      "name": "Upton Magna ROC Post",
      "group": "16",
      "number": "19",
      "lat": 52.70854726,
      "lon": -2.66851855,
      "status": "Publicly listed ROC post"
    },
    {
      "id": "p-stafford",
      "name": "Stafford ROC Post",
      "group": "16",
      "number": "33",
      "lat": 52.84859825,
      "lon": -2.02920961,
      "status": "Publicly listed ROC post"
    },
    {
      "id": "p-ludlow",
      "name": "Ludlow ROC Post",
      "group": "16",
      "number": "27",
      "lat": 52.36503487,
      "lon": -2.72984737,
      "status": "Publicly listed ROC post"
    },
    {
      "id": "p-llanrhaiadr",
      "name": "Llanrhaiadr ROC Post",
      "group": "17",
      "number": "24",
      "lat": 52.8252185,
      "lon": -3.29096466,
      "status": "Publicly listed ROC post"
    },
    {
      "id": "p-aberystwyth",
      "name": "Aberystwyth ROC Post",
      "group": "17",
      "number": "11",
      "lat": 52.41548954,
      "lon": -4.0712269,
      "status": "Publicly listed ROC post"
    },
    {
      "id": "p-colwyn-bay",
      "name": "Colwyn Bay ROC Post",
      "group": "17",
      "number": "37",
      "lat": 53.29431107,
      "lon": -3.73013548,
      "status": "Publicly listed ROC post"
    },
    {
      "id": "p-wetherby",
      "name": "Wetherby ROC Post",
      "group": "18",
      "number": "15",
      "lat": 53.92305175,
      "lon": -1.40290519,
      "status": "Publicly listed ROC post"
    },
    {
      "id": "p-dewsbury",
      "name": "Dewsbury ROC Post",
      "group": "18",
      "number": "34",
      "lat": 53.68786627,
      "lon": -1.63503622,
      "status": "Publicly listed ROC post"
    },
    {
      "id": "p-ilkley",
      "name": "Ilkley ROC Post",
      "group": "18",
      "number": "22",
      "lat": 53.92538927,
      "lon": -1.82027363,
      "status": "Publicly listed ROC post"
    },
    {
      "id": "p-ashford",
      "name": "Ashford ROC Post",
      "group": "1",
      "number": "27",
      "lat": 51.12764198,
      "lon": 0.9167654,
      "status": "Publicly listed ROC post"
    },
    {
      "id": "p-chichester",
      "name": "Chichester ROC Post",
      "group": "2",
      "number": "11",
      "lat": 50.81811783,
      "lon": -0.808374,
      "status": "Publicly listed ROC post"
    },
    {
      "id": "p-bicester",
      "name": "Bicester ROC Post",
      "group": "3",
      "number": "31",
      "lat": 51.90956801,
      "lon": -1.21379608,
      "status": "Publicly listed ROC post"
    },
    {
      "id": "p-ware",
      "name": "Ware ROC Post",
      "group": "5",
      "number": "19",
      "lat": 51.81239059,
      "lon": -0.03784381,
      "status": "Publicly listed ROC post"
    },
    {
      "id": "p-nuneaton",
      "name": "Nuneaton ROC Post",
      "group": "8",
      "number": "14",
      "lat": 52.56640608,
      "lon": -1.41366909,
      "status": "Publicly listed ROC post"
    },
    {
      "id": "p-barnstaple",
      "name": "Barnstaple ROC Post",
      "group": "10",
      "number": "7",
      "lat": 51.04793491,
      "lon": -4.02387984,
      "status": "Publicly listed ROC post"
    },
    {
      "id": "p-penzance",
      "name": "Penzance ROC Post",
      "group": "11",
      "number": "41",
      "lat": 50.1309673,
      "lon": -5.55547563,
      "status": "Publicly listed ROC post"
    },
    {
      "id": "p-camborne",
      "name": "Camborne ROC Post",
      "group": "11",
      "number": "32",
      "lat": 50.2130804,
      "lon": -5.30053728,
      "status": "Publicly listed ROC post"
    },
    {
      "id": "p-launceston",
      "name": "Launceston ROC Post",
      "group": "11",
      "number": "18",
      "lat": 50.63238512,
      "lon": -4.35625524,
      "status": "Publicly listed ROC post"
    },
    {
      "id": "p-grimsby",
      "name": "Grimsby ROC Post",
      "group": "15",
      "number": "9",
      "lat": 53.53176002,
      "lon": -0.00044302,
      "status": "Publicly listed ROC post"
    },
    {
      "id": "p-hereford",
      "name": "Hereford ROC Post",
      "group": "16",
      "number": "42",
      "lat": 52.04417978,
      "lon": -2.71221378,
      "status": "Publicly listed ROC post"
    },
    {
      "id": "p-bangor",
      "name": "Bangor ROC Post",
      "group": "17",
      "number": "26",
      "lat": 53.21826417,
      "lon": -4.12923898,
      "status": "Publicly listed ROC post"
    },
    {
      "id": "p-tunstall",
      "name": "Tunstall ROC Post",
      "group": "20",
      "number": "55",
      "lat": 53.76756265,
      "lon": -0.01125467,
      "status": "Opened 1959, closed 1991. Master post 20/M2.",
      "cluster": "c20-tunstall"
    },
    {
      "id": "p-keyingham",
      "name": "Keyingham ROC Post",
      "group": "20",
      "number": "56",
      "lat": 53.70125203,
      "lon": -0.10194725,
      "status": "Opened 1965, closed 1991",
      "cluster": "c20-tunstall"
    },
    {
      "id": "p-skirlaugh",
      "name": "Skirlaugh ROC Post",
      "group": "20",
      "number": "57",
      "lat": 53.84454809,
      "lon": -0.27484141,
      "status": "Opened 1959, closed 1991",
      "cluster": "c20-tunstall"
    },
    {
      "id": "p-bridlington",
      "name": "Bridlington ROC Post",
      "group": "20",
      "number": "20",
      "lat": 54.12382348,
      "lon": -0.21857626,
      "status": "Opened 1958, closed 1991. Master post.",
      "cluster": "c20-bridlington"
    },
    {
      "id": "p-skipsea",
      "name": "Skipsea ROC Post",
      "group": "20",
      "number": "21",
      "lat": 53.97581392,
      "lon": -0.20903837,
      "status": "Opened 1959, closed 1991",
      "cluster": "c20-bridlington"
    },
    {
      "id": "p-langtoft",
      "name": "Langtoft ROC Post",
      "group": "20",
      "number": "22",
      "lat": 54.08372434,
      "lon": -0.46581741,
      "status": "Opened 1959, closed 1991",
      "cluster": "c20-bridlington"
    },
    {
      "id": "p-pickering",
      "name": "Pickering ROC Post",
      "group": "20",
      "number": "17",
      "lat": 54.24951066,
      "lon": -0.78459943,
      "status": "Opened 1960, closed 1991. Master post.",
      "cluster": "c20-pickering"
    },
    {
      "id": "p-kirby-moorside",
      "name": "Kirby Moorside ROC Post",
      "group": "20",
      "number": "16",
      "lat": 54.26846481,
      "lon": -0.9458847,
      "status": "Opened 1960, closed 1991",
      "cluster": "c20-pickering"
    },
    {
      "id": "p-wykeham",
      "name": "Wykeham ROC Post",
      "group": "20",
      "number": "23",
      "lat": 54.24616487,
      "lon": -0.52502306,
      "status": "Opened 1961, closed 1991",
      "cluster": "c20-pickering"
    },
    {
      "id": "p-pocklington",
      "name": "Pocklington ROC Post",
      "group": "20",
      "number": "35",
      "lat": 53.94645935,
      "lon": -0.71815666,
      "status": "Opened 1958, closed 1991. Master post.",
      "cluster": "c20-pocklington"
    },
    {
      "id": "p-fulford",
      "name": "Fulford ROC Post",
      "group": "20",
      "number": "47",
      "lat": 53.92552321,
      "lon": -1.07043319,
      "status": "Opened 1965, closed 1991",
      "cluster": "c20-pocklington"
    },
    {
      "id": "p-tockwith",
      "name": "Tockwith ROC Post",
      "group": "20",
      "number": "36",
      "lat": 53.96418369,
      "lon": -1.31269245,
      "status": "Opened 1958, closed 1991",
      "cluster": "c20-pocklington"
    },
    {
      "id": "p-beverley",
      "name": "Beverley ROC Post",
      "group": "20",
      "number": "51",
      "lat": 53.83332691,
      "lon": -0.46799314,
      "status": "Opened 1959, closed 1991. Master post.",
      "cluster": "c20-beverley"
    },
    {
      "id": "p-holme-spalding",
      "name": "Holme-on-Spalding-Moor ROC Post",
      "group": "20",
      "number": "50",
      "lat": 53.78761136,
      "lon": -0.74167385,
      "status": "Opened 1960, closed 1991",
      "cluster": "c20-beverley"
    },
    {
      "id": "p-gilberdyke",
      "name": "Gilberdyke ROC Post",
      "group": "20",
      "number": "52",
      "lat": 53.73760897,
      "lon": -0.73073563,
      "status": "Opened 1965, closed 1991",
      "cluster": "c20-beverley"
    },
    {
      "id": "p-strensall",
      "name": "Strensall ROC Post",
      "group": "20",
      "number": "38",
      "lat": 54.03287351,
      "lon": -1.02910775,
      "status": "Opened 1960, closed 1991. Master post.",
      "cluster": "c20-strensall"
    },
    {
      "id": "p-brandsby",
      "name": "Brandsby ROC Post",
      "group": "20",
      "number": "37",
      "lat": 54.14110066,
      "lon": -1.12454725,
      "status": "Opened 1960, closed 1991",
      "cluster": "c20-strensall"
    },
    {
      "id": "p-birdsall",
      "name": "Birdsall ROC Post",
      "group": "20",
      "number": "15",
      "lat": 54.09494296,
      "lon": -0.68453026,
      "status": "Opened 1965, closed 1991",
      "cluster": "c20-strensall"
    },
    {
      "id": "p-northallerton",
      "name": "Northallerton ROC Post",
      "group": "20",
      "number": "10",
      "lat": 54.31495308,
      "lon": -1.41123615,
      "status": "Opened 1959, closed 1991. Master post.",
      "cluster": "c20-northallerton"
    },
    {
      "id": "p-bedale",
      "name": "Bedale ROC Post",
      "group": "20",
      "number": "11",
      "lat": 54.29356684,
      "lon": -1.58499696,
      "status": "Opened 1959, closed 1991",
      "cluster": "c20-northallerton"
    },
    {
      "id": "p-middlesmoor",
      "name": "Middlesmoor ROC Post",
      "group": "20",
      "number": "33",
      "lat": 54.17378075,
      "lon": -1.87051901,
      "status": "Opened 1959, closed 1991. Master post.",
      "cluster": "c20-middlesmoor"
    },
    {
      "id": "p-north-stainley",
      "name": "North Stainley ROC Post",
      "group": "20",
      "number": "30",
      "lat": 54.18231127,
      "lon": -1.58733688,
      "status": "Opened 1958, closed 1991",
      "cluster": "c20-middlesmoor"
    },
    {
      "id": "p-kirby-hill",
      "name": "Kirby Hill ROC Post",
      "group": "20",
      "number": "31",
      "lat": 54.10917918,
      "lon": -1.41935454,
      "status": "Opened 1965, closed 1991",
      "cluster": "c20-middlesmoor"
    },
    {
      "id": "p-darley",
      "name": "Darley ROC Post",
      "group": "20",
      "number": "32",
      "lat": 54.02393274,
      "lon": -1.66888882,
      "status": "Opened 1962, closed 1991",
      "cluster": "c20-middlesmoor"
    },
    {
      "id": "p-buckden",
      "name": "Buckden ROC Post",
      "group": "20",
      "number": "25",
      "lat": 54.19978268,
      "lon": -2.09898847,
      "status": "Opened 1959, closed 1991. Master post.",
      "cluster": "c20-buckden"
    },
    {
      "id": "p-horton",
      "name": "Horton-in-Ribblesdale ROC Post",
      "group": "20",
      "number": "28",
      "lat": 54.14751676,
      "lon": -2.29405816,
      "status": "Opened 1962, closed 1991",
      "cluster": "c20-buckden"
    },
    {
      "id": "p-settle",
      "name": "Settle ROC Post",
      "group": "20",
      "number": "27",
      "lat": 54.06215511,
      "lon": -2.28581531,
      "status": "Opened 1959, closed 1991",
      "cluster": "c20-buckden"
    },
    {
      "id": "p-grassington",
      "name": "Grassington ROC Post",
      "group": "20",
      "number": "26",
      "lat": 54.06896582,
      "lon": -2.01066082,
      "status": "Opened 1959, closed 1991",
      "cluster": "c20-buckden"
    },
    {
      "id": "p-heckmondwike",
      "name": "Heckmondwike ROC Post",
      "group": "20",
      "number": "62",
      "lat": 53.72295261,
      "lon": -1.6777724,
      "status": "Opened 1960, closed 1991. Master post.",
      "cluster": "c20-heckmondwike"
    },
    {
      "id": "p-sowerby-bridge",
      "name": "Sowerby Bridge ROC Post",
      "group": "20",
      "number": "61",
      "lat": 53.68605553,
      "lon": -1.91638142,
      "status": "Opened 1959, closed 1991",
      "cluster": "c20-heckmondwike"
    },
    {
      "id": "p-thornton",
      "name": "Thornton ROC Post",
      "group": "20",
      "number": "41",
      "lat": 53.79610995,
      "lon": -1.86287767,
      "status": "Opened 1965, closed 1991",
      "cluster": "c20-heckmondwike"
    },
    {
      "id": "p-guiseley",
      "name": "Guiseley ROC Post",
      "group": "20",
      "number": "40",
      "lat": 53.89395214,
      "lon": -1.69624107,
      "status": "Opened 1959, closed 1991. Master post.",
      "cluster": "c20-guiseley"
    },
    {
      "id": "p-keighley",
      "name": "Keighley ROC Post",
      "group": "20",
      "number": "42",
      "lat": 53.87480574,
      "lon": -1.92011313,
      "status": "Opened 1959, closed 1991",
      "cluster": "c20-guiseley"
    },
    {
      "id": "p-gargrave",
      "name": "Gargrave ROC Post",
      "group": "20",
      "number": "43",
      "lat": 53.97212986,
      "lon": -2.09753201,
      "status": "Opened 1962, closed 1991",
      "cluster": "c20-guiseley"
    },
    {
      "id": "p-holmfirth",
      "name": "Holmfirth ROC Post",
      "group": "20",
      "number": "60",
      "lat": 53.53503191,
      "lon": -1.76519905,
      "status": "Opened 1960, closed 1991. Master post.",
      "cluster": "c20-holmfirth"
    },
    {
      "id": "p-darton",
      "name": "Darton ROC Post",
      "group": "20",
      "number": "67",
      "lat": 53.60458702,
      "lon": -1.51953924,
      "status": "Opened 1962, closed 1991",
      "cluster": "c20-holmfirth"
    },
    {
      "id": "p-barwick",
      "name": "Barwick-in-Elmet ROC Post",
      "group": "20",
      "number": "65",
      "lat": 53.82405006,
      "lon": -1.41221267,
      "status": "Opened 1962, closed 1991. Master post.",
      "cluster": "c20-barwick"
    },
    {
      "id": "p-camblesforth",
      "name": "Camblesforth ROC Post",
      "group": "20",
      "number": "45",
      "lat": 53.73059817,
      "lon": -1.01789469,
      "status": "Opened 1962, closed 1991",
      "cluster": "c20-barwick"
    },
    {
      "id": "p-burscough",
      "name": "Burscough ROC Post",
      "group": "21",
      "number": "11",
      "lat": 53.5881955,
      "lon": -2.8684436,
      "status": "Opened 1962, closed 1991"
    },
    {
      "id": "p-blackburn",
      "name": "Blackburn ROC Post",
      "group": "21",
      "number": "24",
      "lat": 53.77707621,
      "lon": -2.52165509,
      "status": "Publicly listed ROC post"
    },
    {
      "id": "p-chorley",
      "name": "Chorley ROC Post",
      "group": "21",
      "number": "33",
      "lat": 53.7012972,
      "lon": -2.61796197,
      "status": "Publicly listed ROC post"
    },
    {
      "id": "p-lancaster",
      "name": "Lancaster ROC Post",
      "group": "21",
      "number": "8",
      "lat": 54.04723847,
      "lon": -2.80177769,
      "status": "Publicly listed ROC post"
    },
    {
      "id": "p-burnley",
      "name": "Burnley ROC Post",
      "group": "21",
      "number": "29",
      "lat": 53.78604968,
      "lon": -2.24538284,
      "status": "Publicly listed ROC post"
    },
    {
      "id": "p-accrington",
      "name": "Accrington ROC Post",
      "group": "21",
      "number": "37",
      "lat": 53.80737795,
      "lon": -2.31125951,
      "status": "Publicly listed ROC post"
    },
    {
      "id": "p-brampton",
      "name": "Brampton ROC Post",
      "group": "22",
      "number": "8",
      "lat": 54.93514722,
      "lon": -2.73491259,
      "status": "Opened 1959, closed 1991"
    },
    {
      "id": "p-penrith",
      "name": "Penrith ROC Post",
      "group": "22",
      "number": "19",
      "lat": 54.65463292,
      "lon": -2.77013937,
      "status": "Publicly listed ROC post"
    },
    {
      "id": "p-whitehaven",
      "name": "Whitehaven ROC Post",
      "group": "22",
      "number": "31",
      "lat": 54.55496875,
      "lon": -3.56922536,
      "status": "Publicly listed ROC post"
    },
    {
      "id": "p-keswick",
      "name": "Keswick ROC Post",
      "group": "22",
      "number": "22",
      "lat": 54.60991335,
      "lon": -3.07245256,
      "status": "Publicly listed ROC post"
    },
    {
      "id": "p-appleby",
      "name": "Appleby ROC Post",
      "group": "22",
      "number": "14",
      "lat": 54.57572029,
      "lon": -2.49684703,
      "status": "Publicly listed ROC post"
    },
    {
      "id": "p-alston",
      "name": "Alston ROC Post",
      "group": "22",
      "number": "26",
      "lat": 54.81085506,
      "lon": -2.43935949,
      "status": "Publicly listed ROC post"
    },
    {
      "id": "p-stanhope",
      "name": "Stanhope ROC Post",
      "group": "23",
      "number": "27",
      "lat": 54.76006778,
      "lon": -2.01550798,
      "status": "Publicly listed ROC post"
    },
    {
      "id": "p-sunderland",
      "name": "Sunderland ROC Post",
      "group": "23",
      "number": "14",
      "lat": 54.88329357,
      "lon": -1.45145927,
      "status": "Publicly listed ROC post"
    },
    {
      "id": "p-darlington",
      "name": "Darlington ROC Post",
      "group": "23",
      "number": "36",
      "lat": 54.52610787,
      "lon": -1.54726126,
      "status": "Publicly listed ROC post"
    },
    {
      "id": "p-hexham",
      "name": "Hexham ROC Post",
      "group": "23",
      "number": "18",
      "lat": 54.91651355,
      "lon": -2.0448968,
      "status": "Publicly listed ROC post"
    },
    {
      "id": "p-bishop-auckland",
      "name": "Bishop Auckland ROC Post",
      "group": "23",
      "number": "42",
      "lat": 54.67545479,
      "lon": -1.62174381,
      "status": "Publicly listed ROC post"
    },
    {
      "id": "p-barnard-castle",
      "name": "Barnard Castle ROC Post",
      "group": "23",
      "number": "33",
      "lat": 54.54876292,
      "lon": -1.91555983,
      "status": "Publicly listed ROC post"
    },
    {
      "id": "p-penicuik",
      "name": "Penicuik ROC Post",
      "group": "24",
      "number": "12",
      "lat": 55.80584874,
      "lon": -3.22364588,
      "status": "Publicly listed ROC post"
    },
    {
      "id": "p-dunbar",
      "name": "Dunbar ROC Post",
      "group": "24",
      "number": "27",
      "lat": 55.97679415,
      "lon": -2.51915038,
      "status": "Publicly listed ROC post"
    },
    {
      "id": "p-galashiels",
      "name": "Galashiels ROC Post",
      "group": "24",
      "number": "38",
      "lat": 55.62096492,
      "lon": -2.79167867,
      "status": "Publicly listed ROC post"
    },
    {
      "id": "p-hawick",
      "name": "Hawick ROC Post",
      "group": "24",
      "number": "44",
      "lat": 55.42267031,
      "lon": -2.78865379,
      "status": "Publicly listed ROC post"
    },
    {
      "id": "p-melrose",
      "name": "Melrose ROC Post",
      "group": "24",
      "number": "31",
      "lat": 55.59738952,
      "lon": -2.72439372,
      "status": "Publicly listed ROC post"
    },
    {
      "id": "p-haddington",
      "name": "Haddington ROC Post",
      "group": "24",
      "number": "19",
      "lat": 55.95549317,
      "lon": -2.77671341,
      "status": "Publicly listed ROC post"
    },
    {
      "id": "p-prestwick",
      "name": "Prestwick ROC Post",
      "group": "25",
      "number": "36",
      "lat": 55.4915568,
      "lon": -4.62271669,
      "status": "Publicly listed ROC post"
    },
    {
      "id": "p-kilmarnock",
      "name": "Kilmarnock ROC Post",
      "group": "25",
      "number": "19",
      "lat": 55.61166616,
      "lon": -4.47923474,
      "status": "Publicly listed ROC post"
    },
    {
      "id": "p-girvan",
      "name": "Girvan ROC Post",
      "group": "25",
      "number": "42",
      "lat": 55.21559182,
      "lon": -4.84728566,
      "status": "Publicly listed ROC post"
    },
    {
      "id": "p-troon",
      "name": "Troon ROC Post",
      "group": "25",
      "number": "12",
      "lat": 55.55828605,
      "lon": -4.6587227,
      "status": "Publicly listed ROC post"
    },
    {
      "id": "p-stranraer",
      "name": "Stranraer ROC Post",
      "group": "25",
      "number": "51",
      "lat": 54.83327924,
      "lon": -4.99176675,
      "status": "Publicly listed ROC post"
    },
    {
      "id": "p-oban",
      "name": "Oban ROC Post",
      "group": "27",
      "number": "7",
      "lat": 56.46591077,
      "lon": -5.39915367,
      "status": "Opened 1960, closed 1968"
    },
    {
      "id": "p-fort-william",
      "name": "Fort William ROC Post",
      "group": "27",
      "number": "15",
      "lat": 56.83357446,
      "lon": -5.10003285,
      "status": "Publicly listed ROC post"
    },
    {
      "id": "p-inveraray",
      "name": "Inveraray ROC Post",
      "group": "27",
      "number": "22",
      "lat": 56.22962001,
      "lon": -5.07040814,
      "status": "Publicly listed ROC post"
    },
    {
      "id": "p-campbeltown",
      "name": "Campbeltown ROC Post",
      "group": "27",
      "number": "31",
      "lat": 55.42111834,
      "lon": -5.60879422,
      "status": "Publicly listed ROC post"
    },
    {
      "id": "p-tyndrum",
      "name": "Tyndrum ROC Post",
      "group": "27",
      "number": "9",
      "lat": 56.43688297,
      "lon": -4.71312675,
      "status": "Publicly listed ROC post"
    },
    {
      "id": "p-forfar",
      "name": "Forfar ROC Post",
      "group": "28",
      "number": "29",
      "lat": 56.63060014,
      "lon": -2.88344444,
      "status": "Publicly listed ROC post"
    },
    {
      "id": "p-arbroath",
      "name": "Arbroath ROC Post",
      "group": "28",
      "number": "16",
      "lat": 56.5489204,
      "lon": -2.61788038,
      "status": "Publicly listed ROC post"
    },
    {
      "id": "p-perth",
      "name": "Perth ROC Post",
      "group": "28",
      "number": "41",
      "lat": 56.47321327,
      "lon": -3.43091673,
      "status": "Publicly listed ROC post"
    },
    {
      "id": "p-kirkcaldy",
      "name": "Kirkcaldy ROC Post",
      "group": "28",
      "number": "22",
      "lat": 56.12103391,
      "lon": -3.15160121,
      "status": "Publicly listed ROC post"
    },
    {
      "id": "p-blairgowrie",
      "name": "Blairgowrie ROC Post",
      "group": "28",
      "number": "35",
      "lat": 56.59468432,
      "lon": -3.34283693,
      "status": "Publicly listed ROC post"
    },
    {
      "id": "p-montrose",
      "name": "Montrose ROC Post",
      "group": "28",
      "number": "11",
      "lat": 56.70573256,
      "lon": -2.46332942,
      "status": "Publicly listed ROC post"
    },
    {
      "id": "p-kintore",
      "name": "Kintore ROC Post",
      "group": "29",
      "number": "6",
      "lat": 57.23067722,
      "lon": -2.33622551,
      "status": "Publicly listed ROC post"
    },
    {
      "id": "p-elgin",
      "name": "Elgin ROC Post",
      "group": "29",
      "number": "22",
      "lat": 57.62930191,
      "lon": -3.35016005,
      "status": "Publicly listed ROC post"
    },
    {
      "id": "p-inverurie",
      "name": "Inverurie ROC Post",
      "group": "29",
      "number": "14",
      "lat": 57.23013292,
      "lon": -2.33820817,
      "status": "Publicly listed ROC post"
    },
    {
      "id": "p-peterhead",
      "name": "Peterhead ROC Post",
      "group": "29",
      "number": "9",
      "lat": 57.5062439,
      "lon": -1.77319168,
      "status": "Publicly listed ROC post"
    },
    {
      "id": "p-banchory",
      "name": "Banchory ROC Post",
      "group": "29",
      "number": "18",
      "lat": 57.01791154,
      "lon": -2.59105528,
      "status": "Publicly listed ROC post"
    },
    {
      "id": "p-banff",
      "name": "Banff ROC Post",
      "group": "29",
      "number": "31",
      "lat": 57.6593858,
      "lon": -2.52955814,
      "status": "Publicly listed ROC post"
    },
    {
      "id": "p-cannich",
      "name": "Cannich ROC Post",
      "group": "30",
      "number": "14",
      "lat": 57.34298174,
      "lon": -4.76336185,
      "status": "Publicly listed ROC post"
    },
    {
      "id": "p-dingwall",
      "name": "Dingwall ROC Post",
      "group": "30",
      "number": "26",
      "lat": 57.60947527,
      "lon": -4.42024975,
      "status": "Publicly listed ROC post"
    },
    {
      "id": "p-beauly",
      "name": "Beauly ROC Post",
      "group": "30",
      "number": "8",
      "lat": 57.49052917,
      "lon": -4.47444781,
      "status": "Publicly listed ROC post"
    },
    {
      "id": "p-forres",
      "name": "Forres ROC Post",
      "group": "30",
      "number": "19",
      "lat": 57.60776823,
      "lon": -3.60878678,
      "status": "Publicly listed ROC post"
    },
    {
      "id": "p-aviemore",
      "name": "Aviemore ROC Post",
      "group": "30",
      "number": "33",
      "lat": 57.1998981,
      "lon": -3.82489466,
      "status": "Publicly listed ROC post"
    },
    {
      "id": "p-newtonmore",
      "name": "Newtonmore ROC Post",
      "group": "30",
      "number": "41",
      "lat": 57.08493743,
      "lon": -4.02651303,
      "status": "Publicly listed ROC post"
    },
    {
      "id": "p-hillsborough",
      "name": "Hillsborough ROC Post",
      "group": "31",
      "number": "51",
      "lat": 54.463,
      "lon": -6.083,
      "status": "Publicly listed ROC post"
    },
    {
      "id": "p-antrim",
      "name": "Antrim ROC Post",
      "group": "31",
      "number": "22",
      "lat": 54.72,
      "lon": -6.21,
      "status": "Publicly listed ROC post"
    },
    {
      "id": "p-londonderry",
      "name": "Londonderry ROC Post",
      "group": "31",
      "number": "37",
      "lat": 54.997,
      "lon": -7.31,
      "status": "Publicly listed ROC post"
    },
    {
      "id": "p-armagh",
      "name": "Armagh ROC Post",
      "group": "31",
      "number": "15",
      "lat": 54.352,
      "lon": -6.656,
      "status": "Publicly listed ROC post"
    },
    {
      "id": "p-enniskillen",
      "name": "Enniskillen ROC Post",
      "group": "31",
      "number": "28",
      "lat": 54.344,
      "lon": -7.634,
      "status": "Publicly listed ROC post"
    },
    {
      "id": "p-ballymena",
      "name": "Ballymena ROC Post",
      "group": "31",
      "number": "9",
      "lat": 54.861,
      "lon": -6.275,
      "status": "Publicly listed ROC post"
    },
    {
      "id": "p-ramsgate",
      "name": "Ramsgate ROC Post",
      "group": "1",
      "lat": 51.38674866,
      "lon": 1.44096241,
      "status": "Publicly listed ROC post"
    },
    {
      "id": "p-maidstone",
      "name": "Maidstone ROC Post",
      "group": "1",
      "lat": 51.27467893,
      "lon": 0.57261266,
      "status": "Publicly listed ROC post"
    },
    {
      "id": "p-gravesend",
      "name": "Gravesend ROC Post",
      "group": "1",
      "lat": 51.43677097,
      "lon": 0.31249114,
      "status": "Publicly listed ROC post"
    },
    {
      "id": "p-tunbridge-wells",
      "name": "Tunbridge Wells ROC Post",
      "group": "1",
      "lat": 51.09917303,
      "lon": 0.27046332,
      "status": "Publicly listed ROC post"
    },
    {
      "id": "p-herne-bay",
      "name": "Herne Bay ROC Post",
      "group": "1",
      "lat": 51.3424147,
      "lon": 1.11621968,
      "status": "Publicly listed ROC post"
    },
    {
      "id": "p-worthing",
      "name": "Worthing ROC Post",
      "group": "2",
      "lat": 50.81956245,
      "lon": -0.33814346,
      "status": "Publicly listed ROC post"
    },
    {
      "id": "p-brighton",
      "name": "Brighton ROC Post",
      "group": "2",
      "lat": 50.82486479,
      "lon": -0.11318887,
      "status": "Publicly listed ROC post"
    },
    {
      "id": "p-hastings",
      "name": "Hastings ROC Post",
      "group": "2",
      "lat": 50.87041812,
      "lon": 0.64409727,
      "status": "Publicly listed ROC post"
    },
    {
      "id": "p-eastbourne",
      "name": "Eastbourne ROC Post",
      "group": "2",
      "lat": 50.80094113,
      "lon": 0.33417491,
      "status": "Publicly listed ROC post"
    },
    {
      "id": "p-banbury",
      "name": "Banbury ROC Post",
      "group": "3",
      "lat": 52.07911252,
      "lon": -1.32609953,
      "status": "Publicly listed ROC post"
    },
    {
      "id": "p-henley",
      "name": "Henley-on-Thames ROC Post",
      "group": "3",
      "lat": 51.49422633,
      "lon": -0.90679166,
      "status": "Publicly listed ROC post"
    },
    {
      "id": "p-abingdon",
      "name": "Abingdon ROC Post",
      "group": "3",
      "lat": 51.65092922,
      "lon": -1.26135082,
      "status": "Publicly listed ROC post"
    },
    {
      "id": "p-buckingham",
      "name": "Buckingham ROC Post",
      "group": "3",
      "lat": 51.98471901,
      "lon": -0.97774867,
      "status": "Publicly listed ROC post"
    },
    {
      "id": "p-chelmsford",
      "name": "Chelmsford ROC Post",
      "group": "4",
      "lat": 51.7214011,
      "lon": 0.51797159,
      "status": "Publicly listed ROC post"
    },
    {
      "id": "p-colchester",
      "name": "Colchester ROC Post",
      "group": "4",
      "lat": 51.86688138,
      "lon": 0.86122582,
      "status": "Publicly listed ROC post"
    },
    {
      "id": "p-lowestoft",
      "name": "Lowestoft ROC Post",
      "group": "4",
      "lat": 52.50130362,
      "lon": 1.75056675,
      "status": "Publicly listed ROC post"
    },
    {
      "id": "p-woodbridge",
      "name": "Woodbridge ROC Post",
      "group": "4",
      "lat": 52.1156288,
      "lon": 1.25652858,
      "status": "Publicly listed ROC post"
    },
    {
      "id": "p-enfield",
      "name": "Enfield ROC Post",
      "group": "5",
      "lat": 51.68181741,
      "lon": -0.13694205,
      "status": "Publicly listed ROC post"
    },
    {
      "id": "p-bishops-stortford",
      "name": "Bishop's Stortford ROC Post",
      "group": "5",
      "lat": 51.8596667,
      "lon": 0.08373587,
      "status": "Publicly listed ROC post"
    },
    {
      "id": "p-stevenage",
      "name": "Stevenage ROC Post",
      "group": "5",
      "lat": 51.91704179,
      "lon": -0.10817135,
      "status": "Publicly listed ROC post"
    },
    {
      "id": "p-berkhamsted",
      "name": "Berkhamsted ROC Post",
      "group": "5",
      "lat": 51.77195272,
      "lon": -0.56935631,
      "status": "Publicly listed ROC post"
    },
    {
      "id": "p-kings-lynn",
      "name": "King's Lynn ROC Post",
      "group": "6",
      "lat": 52.77845549,
      "lon": 0.37468262,
      "status": "Publicly listed ROC post"
    },
    {
      "id": "p-thetford",
      "name": "Thetford ROC Post",
      "group": "6",
      "lat": 52.43476772,
      "lon": 0.7413373,
      "status": "Publicly listed ROC post"
    },
    {
      "id": "p-great-yarmouth",
      "name": "Great Yarmouth ROC Post",
      "group": "6",
      "lat": 52.64456243,
      "lon": 1.7029368,
      "status": "Publicly listed ROC post"
    },
    {
      "id": "p-wells-next-sea",
      "name": "Wells-next-the-Sea ROC Post",
      "group": "6",
      "lat": 52.94196276,
      "lon": 0.85100855,
      "status": "Publicly listed ROC post"
    },
    {
      "id": "p-cambridge",
      "name": "Cambridge ROC Post",
      "group": "7",
      "lat": 52.13440523,
      "lon": -0.07121311,
      "status": "Publicly listed ROC post"
    },
    {
      "id": "p-kettering",
      "name": "Kettering ROC Post",
      "group": "7",
      "lat": 52.36835948,
      "lon": -0.73641125,
      "status": "Publicly listed ROC post"
    },
    {
      "id": "p-bedford",
      "name": "Bedford ROC Post",
      "group": "7",
      "lat": 52.02972399,
      "lon": -0.50298289,
      "status": "Publicly listed ROC post"
    },
    {
      "id": "p-ely",
      "name": "Ely ROC Post",
      "group": "7",
      "lat": 52.44275297,
      "lon": 0.29934304,
      "status": "Publicly listed ROC post"
    },
    {
      "id": "p-warwick",
      "name": "Warwick ROC Post",
      "group": "8",
      "lat": 52.38781803,
      "lon": -1.81188004,
      "status": "Publicly listed ROC post"
    },
    {
      "id": "p-tamworth",
      "name": "Tamworth ROC Post",
      "group": "8",
      "lat": 52.61702692,
      "lon": -1.64104462,
      "status": "Publicly listed ROC post"
    },
    {
      "id": "p-redditch",
      "name": "Redditch ROC Post",
      "group": "8",
      "lat": 52.31882326,
      "lon": -1.95168931,
      "status": "Publicly listed ROC post"
    },
    {
      "id": "p-taunton",
      "name": "Taunton ROC Post",
      "group": "9",
      "lat": 51.06767966,
      "lon": -3.09787316,
      "status": "Publicly listed ROC post"
    },
    {
      "id": "p-glastonbury",
      "name": "Glastonbury ROC Post",
      "group": "9",
      "lat": 51.14035284,
      "lon": -2.72737232,
      "status": "Publicly listed ROC post"
    },
    {
      "id": "p-yeovil",
      "name": "Yeovil ROC Post",
      "group": "9",
      "lat": 50.95239625,
      "lon": -2.74436443,
      "status": "Publicly listed ROC post"
    },
    {
      "id": "p-tiverton",
      "name": "Tiverton ROC Post",
      "group": "10",
      "lat": 50.89409555,
      "lon": -3.52448483,
      "status": "Publicly listed ROC post"
    },
    {
      "id": "p-exeter",
      "name": "Exeter ROC Post",
      "group": "10",
      "lat": 50.73026648,
      "lon": -3.42280534,
      "status": "Publicly listed ROC post"
    },
    {
      "id": "p-brixham",
      "name": "Brixham ROC Post",
      "group": "10",
      "lat": 50.3991429,
      "lon": -3.48631447,
      "status": "Publicly listed ROC post"
    },
    {
      "id": "p-truro",
      "name": "Truro ROC Post",
      "group": "11",
      "lat": 50.25284447,
      "lon": -5.0539622,
      "status": "Publicly listed ROC post"
    },
    {
      "id": "p-lostwithiel",
      "name": "Lostwithiel ROC Post",
      "group": "11",
      "lat": 50.40756459,
      "lon": -4.66275021,
      "status": "Publicly listed ROC post"
    },
    {
      "id": "p-bude",
      "name": "Bude ROC Post",
      "group": "11",
      "lat": 50.83385314,
      "lon": -4.54463552,
      "status": "Publicly listed ROC post"
    },
    {
      "id": "p-cheltenham",
      "name": "Cheltenham ROC Post",
      "group": "12",
      "lat": 51.91252488,
      "lon": -2.07903895,
      "status": "Publicly listed ROC post"
    },
    {
      "id": "p-tetbury",
      "name": "Tetbury ROC Post",
      "group": "12",
      "lat": 51.6029071,
      "lon": -2.24772011,
      "status": "Publicly listed ROC post"
    },
    {
      "id": "p-shepton-mallet",
      "name": "Shepton Mallet ROC Post",
      "group": "12",
      "lat": 51.18268813,
      "lon": -2.568227,
      "status": "Publicly listed ROC post"
    },
    {
      "id": "p-trowbridge",
      "name": "Trowbridge ROC Post",
      "group": "12",
      "lat": 51.35050147,
      "lon": -2.2541092,
      "status": "Publicly listed ROC post"
    },
    {
      "id": "p-merthyr-tydfil",
      "name": "Merthyr Tydfil ROC Post",
      "group": "13",
      "lat": 51.75296102,
      "lon": -3.40937661,
      "status": "Publicly listed ROC post"
    },
    {
      "id": "p-neath",
      "name": "Neath ROC Post",
      "group": "13",
      "lat": 51.63121512,
      "lon": -3.82664303,
      "status": "Publicly listed ROC post"
    },
    {
      "id": "p-abergavenny",
      "name": "Abergavenny ROC Post",
      "group": "13",
      "lat": 51.82455429,
      "lon": -2.98326945,
      "status": "Publicly listed ROC post"
    },
    {
      "id": "p-rhayader",
      "name": "Rhayader ROC Post",
      "group": "13",
      "lat": 52.29492525,
      "lon": -3.52066361,
      "status": "Publicly listed ROC post"
    },
    {
      "id": "p-southampton",
      "name": "Southampton ROC Post",
      "group": "14",
      "lat": 50.87593255,
      "lon": -1.44393818,
      "status": "Publicly listed ROC post"
    },
    {
      "id": "p-fareham",
      "name": "Fareham ROC Post",
      "group": "14",
      "lat": 50.82261862,
      "lon": -1.25277134,
      "status": "Publicly listed ROC post"
    },
    {
      "id": "p-ringwood",
      "name": "Ringwood ROC Post",
      "group": "14",
      "lat": 50.81917404,
      "lon": -1.75336946,
      "status": "Publicly listed ROC post"
    },
    {
      "id": "p-portsmouth",
      "name": "Portsmouth ROC Post",
      "group": "14",
      "lat": 50.78847965,
      "lon": -1.10421376,
      "status": "Publicly listed ROC post"
    },
    {
      "id": "p-horncastle",
      "name": "Horncastle ROC Post",
      "group": "15",
      "lat": 53.24313972,
      "lon": -0.160049,
      "status": "Publicly listed ROC post"
    },
    {
      "id": "p-boston-lincs",
      "name": "Boston ROC Post",
      "group": "15",
      "lat": 53.01826079,
      "lon": -0.01815662,
      "status": "Publicly listed ROC post"
    },
    {
      "id": "p-gainsborough",
      "name": "Gainsborough ROC Post",
      "group": "15",
      "lat": 53.39263832,
      "lon": -0.76748822,
      "status": "Publicly listed ROC post"
    },
    {
      "id": "p-wolverhampton",
      "name": "Wolverhampton ROC Post",
      "group": "16",
      "lat": 52.588,
      "lon": -2.128,
      "status": "Publicly listed ROC post"
    },
    {
      "id": "p-oswestry",
      "name": "Oswestry ROC Post",
      "group": "16",
      "lat": 52.86188106,
      "lon": -3.04607279,
      "status": "Publicly listed ROC post"
    },
    {
      "id": "p-telford",
      "name": "Telford ROC Post",
      "group": "16",
      "lat": 52.68807442,
      "lon": -2.45487366,
      "status": "Publicly listed ROC post"
    },
    {
      "id": "p-kidderminster",
      "name": "Kidderminster ROC Post",
      "group": "16",
      "lat": 52.41759808,
      "lon": -2.30578502,
      "status": "Publicly listed ROC post"
    },
    {
      "id": "p-rhyl",
      "name": "Rhyl ROC Post",
      "group": "17",
      "lat": 53.26444345,
      "lon": -3.47058582,
      "status": "Publicly listed ROC post"
    },
    {
      "id": "p-llangefni",
      "name": "Llangefni ROC Post",
      "group": "17",
      "lat": 53.26368791,
      "lon": -4.31608547,
      "status": "Publicly listed ROC post"
    },
    {
      "id": "p-pwllheli",
      "name": "Pwllheli ROC Post",
      "group": "17",
      "lat": 52.92423464,
      "lon": -4.32276332,
      "status": "Publicly listed ROC post"
    },
    {
      "id": "p-barmouth",
      "name": "Barmouth ROC Post",
      "group": "17",
      "lat": 52.74202827,
      "lon": -4.07275628,
      "status": "Publicly listed ROC post"
    },
    {
      "id": "p-bradford",
      "name": "Bradford ROC Post",
      "group": "18",
      "lat": 53.79610995,
      "lon": -1.86287767,
      "status": "Publicly listed ROC post"
    },
    {
      "id": "p-huddersfield",
      "name": "Huddersfield ROC Post",
      "group": "18",
      "lat": 53.62117485,
      "lon": -1.84122032,
      "status": "Publicly listed ROC post"
    },
    {
      "id": "p-barnsley",
      "name": "Barnsley ROC Post",
      "group": "18",
      "lat": 53.554,
      "lon": -1.488,
      "status": "Publicly listed ROC post"
    },
    {
      "id": "p-sheffield",
      "name": "Sheffield ROC Post",
      "group": "18",
      "lat": 53.3272591,
      "lon": -1.51184856,
      "status": "Publicly listed ROC post"
    },
    {
      "id": "p-harrogate",
      "name": "Harrogate ROC Post",
      "group": "18",
      "lat": 54.02933453,
      "lon": -1.45038862,
      "status": "Publicly listed ROC post"
    },
    {
      "id": "p-southport",
      "name": "Southport ROC Post",
      "group": "21",
      "lat": 53.64188575,
      "lon": -3.0239858,
      "status": "Publicly listed ROC post"
    },
    {
      "id": "p-blackpool",
      "name": "Blackpool ROC Post",
      "group": "21",
      "lat": 53.81277213,
      "lon": -2.94552609,
      "status": "Publicly listed ROC post"
    },
    {
      "id": "p-colne",
      "name": "Colne ROC Post",
      "group": "21",
      "lat": 53.86060139,
      "lon": -2.16934084,
      "status": "Publicly listed ROC post"
    },
    {
      "id": "p-clitheroe",
      "name": "Clitheroe ROC Post",
      "group": "21",
      "lat": 53.94669625,
      "lon": -2.34200653,
      "status": "Publicly listed ROC post"
    },
    {
      "id": "p-carlisle",
      "name": "Carlisle ROC Post",
      "group": "22",
      "lat": 54.92366744,
      "lon": -2.9631341,
      "status": "Publicly listed ROC post"
    },
    {
      "id": "p-ulverston",
      "name": "Ulverston ROC Post",
      "group": "22",
      "lat": 54.19829974,
      "lon": -3.10054587,
      "status": "Publicly listed ROC post"
    },
    {
      "id": "p-ambleside",
      "name": "Ambleside ROC Post",
      "group": "22",
      "lat": 54.37273142,
      "lon": -2.99960512,
      "status": "Publicly listed ROC post"
    },
    {
      "id": "p-morpeth",
      "name": "Morpeth ROC Post",
      "group": "23",
      "lat": 55.11502482,
      "lon": -1.66855581,
      "status": "Publicly listed ROC post"
    },
    {
      "id": "p-gateshead",
      "name": "Gateshead ROC Post",
      "group": "23",
      "lat": 54.92496753,
      "lon": -1.55590304,
      "status": "Publicly listed ROC post"
    },
    {
      "id": "p-middlesbrough",
      "name": "Middlesbrough ROC Post",
      "group": "23",
      "lat": 54.58172231,
      "lon": -1.28362197,
      "status": "Publicly listed ROC post"
    },
    {
      "id": "p-edinburgh-city",
      "name": "Edinburgh ROC Post",
      "group": "24",
      "lat": 55.9430381,
      "lon": -3.1703289,
      "status": "Publicly listed ROC post"
    },
    {
      "id": "p-linlithgow",
      "name": "Linlithgow ROC Post",
      "group": "24",
      "lat": 55.99717464,
      "lon": -3.59847,
      "status": "Publicly listed ROC post"
    },
    {
      "id": "p-berwick",
      "name": "Berwick-upon-Tweed ROC Post",
      "group": "24",
      "lat": 55.77186495,
      "lon": -2.01033504,
      "status": "Publicly listed ROC post"
    },
    {
      "id": "p-largs",
      "name": "Largs ROC Post",
      "group": "25",
      "lat": 55.84382712,
      "lon": -4.88332544,
      "status": "Publicly listed ROC post"
    },
    {
      "id": "p-beith",
      "name": "Beith ROC Post",
      "group": "25",
      "lat": 55.76008771,
      "lon": -4.64598418,
      "status": "Publicly listed ROC post"
    },
    {
      "id": "p-sanquhar",
      "name": "Sanquhar ROC Post",
      "group": "25",
      "lat": 55.37316943,
      "lon": -3.92213995,
      "status": "Publicly listed ROC post"
    },
    {
      "id": "p-port-ellen",
      "name": "Port Ellen ROC Post",
      "group": "27",
      "lat": 55.629,
      "lon": -6.195,
      "status": "Publicly listed ROC post"
    },
    {
      "id": "p-tobermory",
      "name": "Tobermory ROC Post",
      "group": "27",
      "lat": 56.60239376,
      "lon": -6.03575497,
      "status": "Publicly listed ROC post"
    },
    {
      "id": "p-brodick",
      "name": "Brodick ROC Post",
      "group": "27",
      "lat": 55.57167779,
      "lon": -5.1198945,
      "status": "Publicly listed ROC post"
    },
    {
      "id": "p-dundee",
      "name": "Dundee ROC Post",
      "group": "28",
      "lat": 56.50253627,
      "lon": -2.93764831,
      "status": "Publicly listed ROC post"
    },
    {
      "id": "p-kinross",
      "name": "Kinross ROC Post",
      "group": "28",
      "lat": 56.21843636,
      "lon": -3.45785295,
      "status": "Publicly listed ROC post"
    },
    {
      "id": "p-pitlochry",
      "name": "Pitlochry ROC Post",
      "group": "28",
      "lat": 56.69211854,
      "lon": -3.73901141,
      "status": "Publicly listed ROC post"
    },
    {
      "id": "p-aberdeen-city",
      "name": "Aberdeen ROC Post",
      "group": "29",
      "lat": 57.11441347,
      "lon": -2.07973417,
      "status": "Publicly listed ROC post"
    },
    {
      "id": "p-turriff",
      "name": "Turriff ROC Post",
      "group": "29",
      "lat": 57.54327202,
      "lon": -2.45253057,
      "status": "Publicly listed ROC post"
    },
    {
      "id": "p-wick",
      "name": "Wick ROC Post",
      "group": "30",
      "lat": 58.46924556,
      "lon": -3.08992056,
      "status": "Publicly listed ROC post"
    },
    {
      "id": "p-kyle",
      "name": "Kyle of Lochalsh ROC Post",
      "group": "30",
      "lat": 57.31444931,
      "lon": -5.68934907,
      "status": "Publicly listed ROC post"
    },
    {
      "id": "p-ullapool",
      "name": "Ullapool ROC Post",
      "group": "30",
      "lat": 57.89496021,
      "lon": -5.16680714,
      "status": "Publicly listed ROC post"
    },
    {
      "id": "p-belfast",
      "name": "Belfast ROC Post",
      "group": "31",
      "lat": 54.597,
      "lon": -5.93,
      "status": "Publicly listed ROC post"
    },
    {
      "id": "p-bangor-ni",
      "name": "Bangor ROC Post",
      "group": "31",
      "lat": 54.654,
      "lon": -5.67,
      "status": "Publicly listed ROC post"
    },
    {
      "id": "p-coleraine",
      "name": "Coleraine ROC Post",
      "group": "31",
      "lat": 55.133,
      "lon": -6.659,
      "status": "Publicly listed ROC post"
    },
    {
      "id": "p-folkestone",
      "name": "Folkestone ROC Post",
      "group": "1",
      "lat": 51.1799,
      "lon": 1.3473,
      "status": "Cluster member listed in source topology; position approximated for display",
      "source": "SubBrit and Ringbell cluster data",
      "cluster": "c01-dover"
    },
    {
      "id": "p-deal",
      "name": "Deal ROC Post",
      "group": "1",
      "lat": 51.1287,
      "lon": 1.2999,
      "status": "Cluster member listed in source topology; position approximated for display",
      "source": "SubBrit and Ringbell cluster data",
      "cluster": "c01-dover"
    },